station,lat,lon
Aleksandrów Kujawski,52.8758646,18.6963912
Andrychów,49.8557919,19.3533583
Andrychów Górnica,49.858467,19.323956
Andrzejówka,49.3406059,20.8209928
Anieliny,53.1291537,17.4865518
Antonin,51.5124976,17.8611802
Augustów,53.8525409,23.0264508
Augustów Port,53.8624093,23.0039831
Augustówka,51.9870323,21.5138195
Babi Dół,54.3015617,18.2886228
Babiak,52.353535,18.6701836
Babica,49.935123,21.9017425
Babica Kolonia,49.9338031,21.8699571
Baborówko,52.580327,16.6318274
Baby,51.5369264,19.7167575
Baciuty,53.0469938,22.9834305
Bajtkowo,53.7371903,22.2400403
Balin,50.1793134,19.3829056
Balinka,53.7681765,23.1606775
Baranówka,50.1465778,20.0954104
Barchów,52.5177099,21.6476805
Barcice,49.5265531,20.6486496
Barczewo,53.8443104,20.6996293
Barcząca,52.156838,21.6262176
Bardo Przyłęk,50.509529,16.7580075
Bardo Śląskie,50.5048571,16.7337841
Bartnica,50.6419372,16.4079523
Bartodzieje,51.5251408,21.1780494
Bartąg,53.7131819,20.4472968
Barwałd Górny,49.8647452,19.6211072
Barwałd Średni,49.8693388,19.602763
Barłogi,52.2158883,18.7678751
Basznia,50.1786086,23.2490526
Basznia Dolna,50.1899476,23.2072411
Bednary,52.1055142,20.0647391
Bedoń,51.7319956,19.6423494
Berejów,51.5141519,22.7213328
Berezów,51.0234048,20.8357603
Besko,49.5905498,21.9562237
Bełsznica,49.9727718,18.3726339
Bełżec,50.3768989,23.4495326
Bełżec Drugi,50.3807697,23.4036669
Biadoliny,50.0037878,20.73508
Biała,51.2631352,18.4238972
Biała Piska,53.6149089,22.0652772
Biała Podlaska,52.0202612,23.1308918
Białki Siedleckie,52.1286792,22.3093689
Białogard,54.0099878,15.9776516
Białośliwie,53.0977578,17.124527
Białuń,53.6152375,14.8410252
Biały Dunajec,49.3762155,20.0071846
Biały Kościół,50.7283844,17.0299699
Białystok,53.1336381,23.1353831
Białystok Bacieczki,53.1505228,23.0719921
Białystok Fabryczny,53.1405223,23.1841933
Białystok Nowe Miasto,53.1063887,23.114035
Białystok Stadion,53.0978743,23.1293836
Białystok Starosielce,53.1211871,23.0867818
Białystok Wiadukt,53.1108631,23.0948712
Biecz,49.7328492,21.2638564
Bielany Wrocławskie,51.0361294,16.9757672
Bielawa Centralna,50.6928069,16.620765
Bielawa Zachodnia,50.6858735,16.606717
Bielin,52.8226849,14.4666488
Bielsk Podlaski,52.7613758,23.1881475
Bielsko-Biała Główna,49.8298605,19.0453155
Bielsko-Biała Komorowice,49.8614515,19.0358225
Bielsko-Biała Leszczyny,49.7970632,19.060798
Bielsko-Biała Lipnik,49.8140102,19.04964
Bielsko-Biała Mikuszowice,49.7824241,19.0746034
Bielsko-Biała Północ,49.8415432,19.0415175
Bielsko-Biała Wschód,49.8346579,19.0585768
Bieniów,51.7160432,15.1792352
Bierawa,50.2938511,18.2566097
Bierutów,51.1284443,17.5461214
Bierzwnik,53.0240587,15.658121
Biesal,53.7204054,20.1943038
Biniew,51.738947,17.7924013
Biskupice,51.1605614,22.9474752
Biskupice Oławskie,50.9939882,17.5155391
Biskupice Wielkopolskie,52.4668217,17.1685791
Biskupice koło Kluczborka,51.0711546,18.2102992
Biskupiec Pomorski,53.4894931,19.3893071
Blachownia,50.7736113,18.9686386
Blizna,53.9064123,23.014965
Bliżyn,51.1104398,20.7572886
Bobowa,49.7167724,20.9576528
Bobowa-Miasto,49.7081911,20.9391125
Bobry,51.0287211,19.4048156
Bobrówka,50.049699,22.8592043
Bochnia,49.9772876,20.4315085
Boczów,52.3267469,14.9462366
Bogaczewo,54.1001205,19.5732271
Bogaczów,51.8439701,15.2679419
Bogdaniec,52.6892806,15.0792115
Bogdanowo,52.6278976,16.818086
Bogoniowice Ciężkowice,49.7984243,20.9765428
Boguchwała,49.9842936,21.9345302
Bogumiłowice,50.0075114,20.872677
Boguszewo,53.4220427,19.0007271
Boguszów-Gorce,50.7504075,16.2016328
Boguszów-Gorce Wschód,50.7480265,16.221964
Boguszów-Gorce Zachód,50.7623624,16.1672666
Bohumin,49.9010069,18.3592963
Bohumin Vrbice,49.8817503,18.3228179
Bojanowo,51.7006769,16.7440004
Bojary,53.0277081,22.9497808
Boksycka,50.9501439,21.3222443
Bolechowo,52.5394713,16.9792724
Boleszkowice,52.7371271,14.5184943
Bolesławice Świdnickie,50.8876906,16.4646272
Bolesławiec,51.2660854,15.5695874
Boreczek,50.8789262,17.02458
Borki-Kosy,52.0890113,22.3583652
Borkowice,50.9323098,18.1564372
Borkowo,54.3333364,18.3334216
Borowa Oleśnicka,51.1841096,17.2760947
Borowiki,52.4820986,23.2152677
Borowina,51.8250173,22.2702606
Borsukówka,53.2273271,22.9309509
Borszewice,51.6097491,19.035664
Borucice,50.9819348,17.55677
Boża Wola,52.189889,20.5268713
Bożacin,51.7324105,17.4339282
Bożepole Wielkie,54.5688524,17.9677613
Bratków,51.4553655,20.1149966
Bratoszewice,51.9384977,19.6528059
Brochocin Trzebnicki,51.2760267,17.0941302
Brodnica,53.2636743,19.4059191
Brody Iłżeckie,51.0215143,21.2002986
Brody Warszawskie,52.51374,20.748048
Brokęcino,53.5624314,16.8176763
Bronów,51.7944961,17.7743076
Brusy,53.8823039,17.7279754
Brwinów,52.1415984,20.718095
Brzask,51.0972299,20.8032124
Brzeg,50.8529011,17.4708931
Brzeg Dolny,51.2668902,16.7249974
Brzeg Głogowski,51.6909555,15.9184746
Brzesko Okocim,49.986778,20.6089461
Brzezie,52.6963658,18.9647868
Brzezinka Średzka,51.2197167,16.8368026
Brzeziny,50.7758319,20.5669487
Brzeźnica Bychawska,51.528971,22.7425991
Brzoza Bydgoska,53.027281,18.0205697
Brzozowica,51.9537128,22.6074926
Buchałów,51.9168131,15.3624072
Budachów,52.1532232,15.0812268
Budki Nowe,52.2444404,18.5634475
Budy Głogowskie,50.1681907,21.9181389
Budziszowice,50.522853,17.5333705
Budzyń,52.8936015,16.9661989
Bujaki,53.4794352,20.3759889
Buk,52.3434755,16.5206784
Bukowa,50.8593531,20.2010092
Bukowice Trzebnickie,51.3995076,17.368541
Bukowina Sycowska,51.3881714,17.5832169
Bukowno,50.2639287,19.4588894
Bukowno Przymiarki,50.275379,19.4090502
Bukowo,50.8961762,18.1067976
Bulowice,49.8762084,19.2898141
Bursztynowo,53.4013918,19.0699968
Busko-Zdrój,50.4619429,20.6853416
Byczyna Kluczborska,51.1137155,18.1998832
Bydgoszcz Akademia,53.1408643,18.1376313
Bydgoszcz Bielawy,53.1318249,18.0532565
Bydgoszcz Brdyujście,53.1334401,18.1109012
Bydgoszcz Błonie,53.1183445,17.9516345
Bydgoszcz Fordon,53.1464952,18.1578364
Bydgoszcz Główna,53.1352905,17.991601
Bydgoszcz Leśna,53.1438546,18.0318251
Bydgoszcz Osowa Góra,53.1476317,17.9135468
Bydgoszcz Wschód,53.1278962,18.0838582
Bydgoszcz Zachód,53.1360746,17.9488566
Bydgoszcz Łęgnowo,53.1071543,18.1126399
Bystra Podhalańska,49.6589124,19.7869805
Bystrzyca Kłodzka,50.2968844,16.654958
Bystrzyca Kłodzka Przedmieście,50.2856474,16.6470179
Bystrzyca koło Lublina,51.3484549,22.637658
Bytnica,52.1314973,15.147861
Bytom,50.3428344,18.9121893
Bytom Karb,50.3517998,18.8820999
Bytom Odrzański,51.726452,15.8211407
Bytom Północny,50.3779658,18.8805036
Bąków,50.9561237,18.3145752
Będziemyśl,50.0665645,21.7739017
Będzin,50.3089738,19.14141
Będzin Ksawera,50.330613,19.1584745
Będzin Miasto,50.319188,19.135537
Będzino,54.2112104,15.9924468
Będów,52.0734107,15.3112522
Będźmierowice,53.7879622,18.0427552
Błaszki,51.673683,18.471086
Błonie,52.1865382,20.6076933
Błotnica Strzelecka,50.4844577,18.4026962
Błądzim,53.4760582,18.1150989
Cegłów,52.1484505,21.7361713
Cekcyn,53.5763468,18.0275776
Celestynów,52.057771,21.3938523
Chabówka,49.5970595,19.9372835
Charsznica,50.3961754,19.9406053
Chałupki,49.9259204,18.311311
Chałupy,54.7615324,18.5025954
Chechło,51.6449462,19.2865151
Chełm,51.1412932,23.4937476
Chełm Miasto,51.1380549,23.458321
Chełm Śląski,50.1093504,19.1838404
Chełmek Wołowski,51.4560519,16.359486
Chełmża,53.1852091,18.5978982
Chludowo,52.5603266,16.8252994
Chmielniki Bydgoskie,53.0016213,18.0501366
Chmielów Zagumnie,50.5233395,21.6858232
Chocicza,52.0702477,17.3495687
Chociszew,51.9237991,19.2672301
Chociwel,53.4705758,15.3357866
Chocznia,49.8741412,19.4519813
Chocznia Górna,49.8625599,19.4320468
Chodzież,52.9939332,16.9095423
Chojna,52.9633511,14.4443258
Chojnice,53.6890673,17.5777493
Chojnik,49.8508561,20.9834796
Chojnów,51.2776726,15.9374714
Chorzów Batory,50.2784252,18.9446804
Chorzów Miasto,50.2985177,18.9494087
Chorzów Stary,50.3164554,18.9574773
Choszczno,53.1654635,15.4033053
Chotomów,52.4157092,20.8847443
Chotyłów,51.9968452,23.3559392
Chrosna,52.031452,21.4485001
Chrośnica,52.2813762,15.991727
Chrusty Nowe,51.6948657,19.7943261
Chruszczobród,50.4003509,19.3290255
Chrząstawa Mała,51.073494,17.2761383
Chrząstowice,50.6605705,18.0747575
Chrząstowice Olkuskie,50.3451162,19.686095
Chrzęsne,52.4471056,21.4746335
Chróstnik,51.3559935,16.1809737
Chróścice,50.7927523,17.8168074
Chróścina Nyska,50.6167705,17.3782591
Chróścina Opolska,50.6698356,17.8181411
Chybie,49.892758,18.809291
Chybie Mnich,49.8873185,18.8205444
Chynów,51.9027315,21.1006911
Chytra,52.7390429,23.5150058
Ciasna,50.7563138,18.629458
Ciechanowice,50.865419,15.9798559
Ciechanów,52.8834587,20.5912409
Ciecierzyn,51.3189376,22.6081345
Cienin,52.272545,17.9661231
Cienin Kościelny,52.2700605,18.0095221
Cieplewo,54.2336094,18.6475876
Cierpice Kąkol,52.9918988,18.4465382
Cierpigórz,52.2260596,22.5947786
Cieszków,51.6313553,17.3526175
Cieszyn,49.7512354,18.636478
Cieszyn Marklowice,49.7846361,18.6039924
Cikowice,49.9849217,20.3806565
Cisie,52.2099706,21.3904851
Cisiec,49.5835029,19.1055386
Cięcina,49.6095576,19.1362578
Cięcina Dolna,49.6215324,19.1519852
Cmolas,50.2939238,21.7520752
Cygany,50.5127733,21.6970132
Czachówek Górny,51.9680685,21.0774912
Czachówek Południowy,51.9586358,21.0814363
Czachówek Wschodni,51.9734724,21.104208
Czarlin,54.0481577,18.7668156
Czarna Białostocka,53.305864,23.2798443
Czarna Tarnowska,50.06041,21.2487034
Czarna Woda,53.8512071,18.1086364
Czarnca,50.8238886,19.9446978
Czarniecka Góra,51.1436799,20.518553
Czarnków,,
Czarny Blok,53.2492124,23.2093638
Czastary,51.2742553,18.3360358
Czechowice-Dziedzice,49.9153604,19.0066519
Czechowice-Dziedzice Południowe,49.890182,19.0243244
Czechowice-Dziedzice Przystanek,49.9057537,19.0223872
Czechowizna,53.3511838,22.8368452
Czekanów,51.6854689,17.8605973
Czempiń,52.1387148,16.7521038
Czepino,53.2848048,14.5124797
Czeremcha,52.5187507,23.3535138
Czerna,51.7022571,15.88455
Czerna Mała,51.2299733,16.8035361
Czernica Wrocławska,51.0496835,17.2358061
Czerniewice,52.5089241,19.0893425
Czersk,53.8007219,17.970593
Czersk Świecki,53.5514302,18.4675796
Czerwieńsk,52.0151544,15.4124967
Czerwionka,50.148788,18.6851834
Czerwionka Dębieńsko,50.1566873,18.6643017
Czerwonak,52.4684566,16.9798479
Czerwonak Osiedle,52.4800088,16.9780464
Czerwonka,53.9143727,20.8937485
Czeska Wieś,50.7580652,17.4593743
Czesławice,51.3076439,22.2630048
Czudec,49.9403101,21.8333148
Czuprynowo,53.4722358,23.63164
Czyżew,52.7997433,22.3421671
Czyżowice,49.9740476,18.4253931
Częstochowa,50.8084279,19.1209688
Częstochowa Aniołów,50.8352835,19.1516348
Częstochowa Gnaszyn,50.7915868,19.0290478
Częstochowa Raków,50.7876286,19.1554329
Częstochowa Stradom,50.7973211,19.1069996
Dalekie,52.6824722,21.4943451
Daleszewo,53.3062847,14.5290783
Dalęcino,53.7478774,16.6084745
Damnica,54.4980115,17.2700464
Daszewo,54.0773349,15.8747856
Dobczyn,52.3788971,21.3131866
Dobiegniew,52.9683724,15.7470574
Dobieszyn,51.6309275,21.1763971
Dobrocin,53.9100343,19.8291421
Dobroszyce,51.2705063,17.3637981
Dobrowoda,52.5617949,23.3915861
Dobroń,51.6293558,19.2408357
Dobrynka,51.9985706,23.4414205
Dobryszyce koło Radomska,51.1242909,19.4443235
Dobrzechów,49.8728585,21.7436593
Dobrzeń Wielki,50.7720221,17.8594832
Dobrzykowice Wrocławskie,51.0875528,17.1800256
Dobrzyniewo Duże,53.1943888,23.0028314
Dobrzyń,53.4342289,20.3865709
Dolice,53.1988317,15.2102961
Dolna Odra,53.2113111,14.4809594
Domaniewice,52.02057,19.8210551
Domaniewice Centrum,52.0118913,19.7919217
Domanin,51.3443616,17.995327
Domaszków,50.2131508,16.6552382
Domaszowice,51.0486497,17.883251
Domasław,51.0100526,16.9529393
Dominów,51.2123202,22.8435885
Dopiewo,52.3537457,16.6779731
Dorohusk,51.17204,23.7834279
Drawiny,52.8966387,15.9514176
Drawski Młyn,52.8599214,16.0940344
Drogomyśl,49.8868586,18.7580011
Drużyna Poznańska,52.2100916,16.8236827
Drygały,53.6792098,22.1039768
Drzewce,52.2694389,15.161704
Drzeńsko,52.3698187,14.7714401
Drzymałowo,52.1569819,16.2968953
Dubielno,53.508756,18.5565878
Dulowa,50.1404441,19.5207498
Dunowo,54.1218364,16.0912585
Duszniki-Zdrój,50.4090324,16.3858127
Dygowo,54.1407071,15.7267013
Dytmarów,50.3298343,17.6765639
Dziadówki,50.399151,20.008372
Działdowo,53.2379827,20.1677473
Dziembówko,53.0707704,16.8152757
Dziemiany Kaszubskie,54.0114862,17.7752547
Dziergowice,50.2418342,18.3008152
Dzierżoniów Śląski,50.7243526,16.6407227
Dzierżążno,54.3152372,18.2640758
Dziewule,52.0480131,22.3846302
Dąbroszyn,52.6189129,14.7124807
Dąbrowa Białostocka,53.647936,23.3650907
Dąbrowa Chełmińska,53.1752542,18.2819661
Dąbrowa Górnicza,50.330374,19.1848234
Dąbrowa Górnicza Gołonóg,50.343952,19.2262466
Dąbrowa Górnicza Sikorka,50.3889509,19.2991058
Dąbrowa Górnicza Strzemieszyce,50.3109483,19.2681093
Dąbrowa Górnicza Wschodnia,50.3033648,19.3112813
Dąbrowa Górnicza Ząbkowice,50.3665939,19.2646845
Dąbrowa Niemodlińska,50.6915759,17.753867
Dąbrowa Oleśnicka,51.2300777,17.3689153
Dąbrowy,53.5173689,18.4895126
Dęba Rozalin,50.4288076,21.7431315
Dębe Wielkie,52.1991974,21.4227753
Dębica,50.0539304,21.4041528
Dębica Wschodnia,50.0624594,21.4489028
Dęblin,51.5783347,21.8340731
Dębska Kuźnia,50.6642957,18.1126867
Dębska Wola,50.7021954,20.5979011
Długi Kąt,50.4824342,23.1020525
Długie,49.5781302,22.0495087
Długopole-Zdrój,50.2384136,16.6379329
Długołęka,51.1784645,17.1944543
Elbląg,54.1509826,19.4155509
Ełk,53.8255962,22.3620002
Ełk Szyba Wschód,53.8011228,22.3728312
Ełk Szyba Zachód,53.8023173,22.3703313
Fasty,53.1767248,23.0250427
Fałkowo,52.4984566,17.4239904
Firlus,53.2696586,18.6295832
Fiszewo,54.0676284,19.2490356
Forst Lausitz,51.7389354,14.637064
Fosowskie,50.6605459,18.359882
Frankfurt/Oder,52.3365359,14.5466945
Fronołów,52.3608239,22.9290509
Frysztak,49.8315538,21.6181809
Gajówka,50.3946262,19.878614
Gamerki Wielkie,53.8449437,20.1385158
Garbce,51.5126748,16.8902009
Garczegorze,54.5896389,17.7030604
Garki,51.5398821,17.648675
Garwolin,51.9018979,21.5534715
Gawrony,52.1125846,19.2198214
Gałkówek,51.7298223,19.7318181
Gdańsk Brętowo,54.3651261,18.5735495
Gdańsk Główny,54.3564345,18.6441946
Gdańsk Jasień,54.3536518,18.5500839
Gdańsk Kiełpinek,54.3553796,18.5284794
Gdańsk Lipce,54.3015204,18.6358986
Gdańsk Matarnia,54.3735398,18.506331
Gdańsk Niedźwiednik,54.3781238,18.5720594
Gdańsk Oliwa,54.4098972,18.5718547
Gdańsk Oliwa SKM,,
Gdańsk Orunia,54.324252,18.6344756
Gdańsk Osowa,54.4222198,18.4526329
Gdańsk Politechnika,54.3741905,18.6274077
Gdańsk Port Lotniczy,54.3827919,18.4663071
Gdańsk Przymorze-Uniwersytet,,
Gdańsk Rębiechowo,54.3874918,18.4463312
Gdańsk Stadion Expo,54.387496,18.6331559
Gdańsk Stocznia,54.3646358,18.6417851
Gdańsk Strzyża,54.3917637,18.5788423
Gdańsk Wrzeszcz,54.3817696,18.6055111
Gdańsk Zaspa,54.3897726,18.591526
Gdańsk Śródmieście,54.3468793,18.6443526
Gdańsk Żabianka-AWFiS,,
Gdynia Chylonia,54.5457503,18.4636617
Gdynia Cisowa,54.5498083,18.4471926
Gdynia Grabówek,,
Gdynia Główna,54.5216208,18.5274712
Gdynia Karwiny,54.4698814,18.5088468
Gdynia Leszczynki,,
Gdynia Orłowo,54.4766459,18.5486299
Gdynia Orłowo SKM,54.4767414,18.5489769
Gdynia Redłowo,54.4915242,18.5383657
Gdynia Stadion,54.4961509,18.5332216
Gdynia Stocznia-Uniwersytet Morski,,
Gdynia Wzgórze Św.Maksymiliana,,
Geniusze,,
Gierałtów,51.1920636,15.2998556
Gierałtów Wykroty,51.2168129,15.2845742
Gierwaty,52.9926109,21.6039595
Gilów,51.1198996,20.7288347
Giżycko,54.0312055,21.778565
Gliniczek,49.7369997,21.538517
Gliniszcze,53.4658825,23.5011292
Glinnik,51.8869356,19.4972015
Glinnik Wieś,51.8825416,19.4816397
Gliwice,50.3010936,18.6769406
Gliwice Kuźnica,50.3567359,18.6213817
Gliwice Łabędy,50.3409131,18.6219002
Gniewkowo,52.8880687,18.4039475
Gniezno,52.5296664,17.6032272
Goczałkowice,49.9444165,18.9666496
Goczałków,51.0084324,16.3253301
Godki,53.8175782,20.2502676
Godków,52.901331,14.4585631
Godętowo,54.581917,17.8632338
Goerlitz,49.6634514,21.1625883
Gogolin,50.493165,18.0186011
Goleniów,53.5594624,14.839589
Golina,51.9062688,17.4595955
Golęczewo,52.5348561,16.8279232
Gomunice,51.1635621,19.4867937
Goniądz,53.4593883,22.7263194
Gorlice Zagórzany,49.6941177,21.1954305
Gorzanów,50.3543949,16.6409172
Gorzelin,51.3285117,16.1810408
Gorzkowice,51.2182938,19.603241
Gorzuchowo Chełmińskie,53.3507359,18.693451
Gorzów Wielkopolski,52.7275789,15.2285293
Gorzów Wielkopolski Wieprzyce,52.7180912,15.1815438
Gorzów Wielkopolski Wschodni,52.7318467,15.2492525
Gorzędów,51.1970504,19.5440164
Gostynin,52.4334171,19.4761741
Goszcza,50.1846506,20.0612274
Goszczowice,50.5730563,17.6221576
Goworowo,52.9210371,21.5819266
Gołaszewo Kujawskie,52.5468201,19.091124
Gołańcz,52.9474493,17.3058774
Gołubie Kaszubskie,54.2124619,18.0367211
Gołąb,51.5052883,21.9099476
Gościcino Wejherowskie,54.60506,18.1610766
Gośniewice,51.8162872,21.139863
Grabiny,50.0460293,21.3326192
Grabniak,51.7124353,21.7052659
Grabowno Wielkie,51.34322,17.403474
Grabów Szlachecki,51.7038252,22.0966378
Grabów nad Pilicą,51.7420407,21.1821052
Grajewo,53.650103,22.448183
Granowiec,51.5116753,17.6451794
Granowo Nowotomyskie,52.2255006,16.5306944
Gregorowce,52.6624924,23.2416068
Grodków Śląski,50.6977778,17.376277
Grodzisk Mazowiecki,52.1102652,20.6230892
Grodzisk Wielkopolski,52.2304126,16.3639741
Grodziszcze Mazowieckie,52.1608742,21.872457
Grom,53.606319,20.8620492
Gromnik,49.8343308,20.9611921
Gronowo Elbląskie,54.0900141,19.3059519
Grotniki,51.887121,19.3110879
Grudze,52.0486556,19.9017605
Grudziądz,53.4819767,18.7615467
Grudziądz Mniszek,53.433415,18.7254506
Grudziądz Przedmieście,53.4742372,18.7488745
Grupa,53.5039613,18.6295025
Grybów,49.6259905,20.957127
Gryfice,53.9149422,15.1917473
Gryfino,53.2541187,14.4929615
Gryfów Śląski,51.0339789,15.4289759
Grylewo,52.8878506,17.2278221
Gryźliny,53.6130909,20.3465999
Grzegorzewo,52.485503,21.4287473
Grzmiąca,53.8325125,16.4195008
Grzybno,53.2034921,18.446627
Grzędzice,53.3581646,14.9732591
Grzęska,50.0800374,22.452564
Gródek,51.5796136,22.7940301
Grąblewo,52.2355245,16.3902333
Grębocice,51.5933575,16.1850327
Gręboszów,51.0654514,17.7997779
Grębów,50.6051506,21.8392825
Guben,51.9590817,14.7067478
Gubin,51.9784355,14.721083
Gutowo Wielkopolskie,52.3324062,17.6438574
Gułtowy,52.3681003,17.3166527
Gzin,53.192096,18.3319144
Góra Kalwaria,51.9892368,21.1929475
Górażdże,50.5292143,18.0033261
Górka Duchowna,51.9542157,16.5769051
Górki Noteckie,52.7932889,15.4884964
Górki Szczukowskie,,
Górki Śląskie,50.1422541,18.3888565
Górna Grupa,53.4987376,18.6772156
Górowo,53.9601001,20.9843268
Górzyca,52.499438,14.6573592
Górzyniec,50.8600483,15.5681957
Gądki,52.3019627,17.0455008
Gądków Wielki,52.2464777,14.9631756
Gągławki,53.6802225,20.4372063
Gąsawy Plebańskie,51.2318078,20.9473313
Głogów,51.6696063,16.0798664
Głogów Huta,51.6752121,15.9925675
Głogów Małopolski,50.1473563,21.9596092
Głogów Wróblin,51.686569,15.9546575
Głogówek,50.3475027,17.8755824
Głogówko,51.735189,16.0955493
Głowno,51.9614039,19.7030198
Głuchowo,53.2020799,18.5437121
Głuchołazy,50.3301598,17.3944233
Głuchołazy Miasto,50.3168044,17.3898751
Głuchów,50.0834693,22.2790775
Głuszyca,50.6879202,16.3539237
Głuszyca Górna,50.6729297,16.3715846
Głuszyno Pomorskie,54.4898704,17.4178174
Hajnówka,52.73355,23.5830712
Halinów,52.2233842,21.3502762
Hel,54.6110402,18.8008848
Henryków,50.663243,17.0300261
Herby Nowe,50.7475565,18.8545454
Herby Stare,50.7472976,18.8809378
Hordzieżka,51.7546384,22.1609371
Horka Gbf,,
Horyniec-Zdrój,,
Hołówki Duże,52.9713971,23.0952687
Hrebenne,50.298362,23.5760934
Hrubieszów Miasto,50.7971297,23.9089671
Hryniewicze,53.0723309,23.1281588
Hucisko,49.6885245,19.4074103
Hurko,49.7851816,22.8629134
Huta Komorowska,50.3894315,21.7157915
Imbramowice,50.9633658,16.5781401
Imielin,52.1493,21.0461062
Inowrocław,52.8051894,18.2439417
Inowrocław Rąbinek,52.7693872,18.2431612
Inwałd,49.8530079,19.3881037
Iwin,53.7950743,16.5154723
Iwiny,51.0546671,17.068808
Izbica,50.8905686,23.1554521
Iława Główna,53.5822143,19.573749
Iława Miasto,53.5955841,19.54881
Iłowa Żagańska,51.5020342,15.1886324
Iłowiec,52.1837368,16.7994175
Jabłonowo Pomorskie,53.3934491,19.1629237
Jabłoń Kościelna,52.9084279,22.6507455
Jacków,50.9643734,19.3546779
Jadachy,50.4829285,21.6963547
Jadwiżyn,53.1239203,17.3718
Jagodin,,
Jagodzin,51.3558757,15.1702685
Jaksice,52.8558723,18.1994668
Jaktorów,52.0866651,20.5518786
Jamielnik,53.5290677,19.5016713
Janikowo,52.748872,18.1160506
Janinów,51.0559123,18.6055648
Jankowa,49.6951408,20.9338799
Jankowa Żagańska,51.5673263,15.1808642
Jankowo Dolne,52.5388432,17.7195853
Janków Przygodzki,51.608891,17.8097258
Janowice Wielkie,50.8785015,15.9187624
Janówek,52.4253307,20.7783945
Jarocin,51.9683099,17.4947192
Jarosty,51.4615322,19.6931449
Jaroszowiec Olkuski,50.3422847,19.6218089
Jarosław,50.0106216,22.6783904
Jarzębia Łąka,52.4578226,21.4477047
Jasienica Dolna,50.5041616,17.5038968
Jasienica Mazowiecka,52.4154325,21.398569
Jasień Brzeski,49.9870188,20.5581519
Jasiona,50.4594713,18.0751504
Jasionna Łowicka,52.1246035,20.1236412
Jastarnia,54.7016654,18.6766494
Jastarnia Wczasy,54.7079444,18.6553541
Jastrowie,53.408285,16.7984767
Jastrząb,51.2488147,20.9845611
Jastrzębna,53.7461007,23.1978874
Jastrzębsko,52.2951463,16.0612341
Jaszczów,51.2021235,22.9106093
Jasło,49.7374629,21.4703978
Jasło Fabryczne,49.7494217,21.5339631
Jawor,51.0550466,16.1984434
Jaworzno Ciężkowice,50.2129797,19.3370763
Jaworzno Szczakowa,50.2463727,19.2972624
Jaworzyna Śląska,50.9124681,16.4288522
Jazy,54.1292396,15.7899664
Jaśkowice Legnickie,51.2151033,16.3141192
Jedlicze,49.7190286,21.647978
Jedlicze Męcinka,49.7261755,21.6260809
Jedlina-Zdrój,,
Jelcz Miłoszyce,51.0445694,17.3054006
Jelcz-Laskowice,51.037022,17.3454105
Jelenia Góra,50.9025882,15.7559869
Jelenia Góra Cieplice,50.8697521,15.6852449
Jelenia Góra Orle,50.8639918,15.6573613
Jelenia Góra Przemysłowa,50.8876763,15.7051811
Jelenia Góra Sobieszów,50.8517865,15.6454058
Jelenia Góra Zabobrze,50.9102932,15.7428481
Jelenia Góra Zachodnia,50.9005971,15.719455
Jeleń,51.5020459,20.0729897
Jeleśnia,49.652422,19.3209664
Jeruty,53.5526128,21.1540066
Jerzmanice Lubuskie,52.3069239,14.8670554
Jesionka,52.0148195,20.3347217
Jezierzany,51.2356667,16.0976222
Jezierzyce Słupskie,54.5043046,17.1210857
Jełowa,50.7936376,18.0466312
Jeżewo,53.5073085,18.4887503
Jeżówka,50.3992948,19.8157146
Jonkowo,53.8158491,20.2960504
Jordanów,49.6376556,19.8328607
Julianka,50.7646466,19.4732727
Jurata,54.6849444,18.7134138
Justynów,51.7309126,19.6835961
Juszczyn,49.7068594,19.6920001
Józefów,52.136227,21.2364898
Józefów Roztoczański,50.5181888,23.0397708
Jędrzejów,50.6445096,20.2756734
Jędrzychowice,51.1740916,15.0177339
Kaczkowo,51.7426235,16.6810248
Kaczory,53.1054359,16.8817177
Kaczyce,49.8320901,18.6102284
Kalembina,49.8692861,21.6853337
Kalety,50.5663493,18.8882607
Kaliska,53.9026339,18.2153931
Kaliska Kujawskie,52.4119894,19.1239223
Kalisz,51.742827,18.0713653
Kalisz Pomorski,53.2776751,15.8809412
Kalisz Szczypiorno,51.7259333,18.0272669
Kalisz Winiary,51.7334923,18.1413193
Kaliszki,53.620475,22.00602
Kalwaria Zebrzydowska,49.8738845,19.6737522
Kalwaria Zebrzydowska Lanckorona,49.8711791,19.6886185
Kamieniec Ząbkowicki,50.5363239,16.897348
Kamienna Nowa,53.6915744,23.2626411
Kamień Mały,52.6415607,14.7800351
Kamień Łowicki,51.9887032,19.753151
Kamieńczyce,50.3273492,20.0057484
Kamieńsk,51.1862977,19.4991442
Kamionka Wielka,49.5780239,20.7814241
Kamionki Jezioro,53.1297934,18.7797825
Kanie,51.1246459,23.1040689
Karlino,54.0452944,15.8833233
Kartuzy,54.3300564,18.2046825
Karwice,54.3450227,16.5352562
Karłowice,50.8802597,17.6990536
Katowice,50.2576071,19.0171456
Katowice Brynów,50.2442339,18.983371
Katowice Ligota,50.2260023,18.9778134
Katowice Piotrowice,50.2132694,18.9699649
Katowice Podlesie,50.1829287,18.960329
Katowice Szopienice Południowe,50.2589152,19.092466
Katowice Zawodzie,50.2572998,19.0574498
Katowice Załęże,50.2638657,18.9895811
Kawnice,52.249843,18.1509343
Kały,,
Kiekrz,52.4755914,16.7896342
Kielce,50.8743077,20.6179325
Kielce Białogon,50.8552785,20.5745468
Kielce Herbskie,50.8859058,20.6024161
Kielce Piaski,50.8897894,20.6253268
Kielce Słowik,50.8335783,20.538673
Kielce Ślichowice,50.8888087,20.5838753
Kiełpino Kartuskie,54.2872777,18.2317041
Kije,50.6077569,20.5777501
Klecza Dolna,49.8783066,19.534601
Klecza Górna,49.8651412,19.5670768
Klembów,52.396019,21.3531447
Klemensów,,
Klementowice,51.3627122,22.1101676
Klepacze,53.1030051,23.0809097
Kleszczele,52.5643178,23.3189832
Klewki,53.7364896,20.5680774
Klimontów,50.525391,20.0301626
Kliniska,53.4608622,14.7840205
Kluczbork,50.9710826,18.201009
Knurów,50.217278,18.688153
Knyszyn,53.2846326,22.8960757
Kobierzyce,50.9742632,16.9265914
Kobiór,50.0658256,18.9234767
Kobylany,52.0376649,23.5609897
Kobylec,52.8483404,17.2007966
Kobylnica,52.4458143,17.0794703
Kobyłka,52.336943,21.2155784
Kobyłka Ossów,52.3270568,21.1927373
Kochanowice,50.6991259,18.7479576
Kochcice-Glinica,50.7140106,18.6575134
Kojszówka,49.6902908,19.7228658
Kokotów,50.0178259,20.0698506
Kolbuszowa,50.2454136,21.7850466
Kolin,53.2443554,15.1245925
Kolonia,53.5672841,21.272218
Kolonowskie,50.6519246,18.3881098
Kolumna,51.6148915,19.1959352
Koluszki,51.7438515,19.8186183
Komańcza,49.3389488,22.0724508
Komańcza Letnisko,49.3462792,22.0806184
Komorowo Żuławskie,54.1047941,19.5099892
Komorów Podmurynia,50.3495467,21.7330367
Komprachcice,50.6316632,17.8213941
Koniecpol,50.776388,19.700042
Koniecpol Magdasz,50.7725111,19.6533269
Konin,52.2312372,18.2532655
Konin Zachód,52.2368188,18.2221149
Konin Żagański,51.5456539,15.1916491
Konojady,53.3493985,19.2276595
Kopalina,51.0210942,17.4040382
Kornatowo,53.2965038,18.6471971
Kornelin,52.1831505,20.206215
Kornica,51.2173311,20.4047684
Korsze,54.1723169,21.1368803
Korwinów,50.7385774,19.1766004
Korzenica,50.0558713,22.9368949
Korzeńsko,51.5446015,16.8722387
Kosina,50.0835701,22.3228456
Kosiorki,52.1071086,22.3360033
Kostomłoty,50.9217423,20.615332
Kostrzyn,52.5916462,14.6478383
Kostrzyn Wielkopolski,52.3932322,17.2246954
Kostów,51.1656636,18.1455528
Koszalin,54.1906752,16.1697156
Koszewnica,52.1691158,21.9868298
Koszęcin,50.6229914,18.8358583
Kotlin,51.9146047,17.6489564
Kotomierz,53.2843906,18.1208811
Kotowo,52.2283129,16.4840197
Kotulin,50.4688106,18.4359196
Kotuń,52.176237,22.0676778
Kotórz Mały,50.7289893,18.0360812
Kowalewo Pomorskie,53.1638254,18.8691013
Kowalów,52.3974515,14.7597177
Kozia Góra,53.8535626,20.0804022
Kozy,49.8497339,19.1426467
Kozy Zagroda,49.8574803,19.1639399
Kozłowo,53.3092581,20.3115687
Kozłów,50.4747787,20.0120984
Kołbiel,52.0402499,21.4343555
Koło,52.2113717,18.6315449
Kołobrzeg,54.1821911,15.5708986
Kołodziejewo,52.7135245,18.0360342
Kończyce,49.8507507,18.6255756
Końskie,51.1902037,20.422849
Końskowola,51.3984665,22.0483079
Kościan,52.0790462,16.6421269
Kościernica,54.0537661,16.0103931
Kościerzyna,54.1206668,17.994624
Koźla Kożuchowska,51.8724594,15.3188786
Koźlice,51.4510424,16.2329541
Koźmin Wielkopolski,51.8319671,17.4437518
Krajenka,53.2890825,16.9915365
Kraków Batowice,50.1075321,19.9954682
Kraków Bieżanów,50.0214492,20.0300095
Kraków Bonarka,50.0293189,19.9462275
Kraków Bronowice,50.0828929,19.8927105
Kraków Główny,50.0686663,19.947802
Kraków Lubocza,50.0905797,20.07464
Kraków Mydlniki,50.0835967,19.8596997
Kraków Mydlniki Wapiennik,50.091229,19.8444108
Kraków Nowa Huta,50.0905849,20.136692
Kraków Opatkowice,49.9884408,19.8985395
Kraków Podgórze,50.0411325,19.9594924
Kraków Prokocim,50.0265465,19.9988858
Kraków Płaszów,50.0345327,19.9754459
Kraków Sanktuarium,50.0141171,19.9343496
Kraków Sidzina,49.9855309,19.8746169
Kraków Swoszowice,50.0003673,19.9281054
Kraków Zabłocie,50.0481266,19.9574154
Kraków Złocień,50.0181057,20.0511101
Kraków Łagiewniki,50.0230861,19.9337391
Kraków Łobzów,50.0819615,19.9179042
Kramsk,52.2451849,18.4766921
Krasiejów,50.6683375,18.249405
Krasnystaw Fabryczny,51.0244189,23.1827257
Krasnystaw Miasto,50.9850354,23.1829473
Kraśnik,50.9295842,22.2831952
Krosno,49.6937173,21.7488961
Krosno Miasto,49.6825513,21.7730572
Krosno Odrzańskie,52.0318798,15.0939068
Krosno Polanka,49.7019251,21.7222345
Krosno Turaszówka,,
Krosnowice Kłodzkie,50.3922109,16.6368292
Krostkowo,53.1078012,17.2075201
Krotoszyn,51.7014082,17.4259448
Krośnice,51.4712011,17.3738925
Kruszyna,51.5798286,21.1789431
Krynica-Zdrój,,
Krynka Łukowska,52.0066666,22.3757764
Krzcięcice,50.587563,20.1406047
Krzemienica,50.0817384,22.1871616
Krzemionki,49.8407705,19.1151061
Krzepice,50.9691339,18.6971161
Krzepów,51.6452175,16.1330313
Krzeszna,54.2355578,18.0887489
Krzeszowice,50.1308972,19.6339658
Krzewie,52.2354639,19.166831
Krzymosze,52.1779775,22.4391764
Krzywda,51.7952727,22.2056436
Krzywin Gryfiński,53.0881553,14.4538519
Krzywizna,51.026146,18.2017595
Krzyż,52.8776425,16.0194221
Krzyżowa,50.7939188,16.530145
Królewo Malborskie,54.0372266,19.1171481
Krężel,51.8715148,21.1114313
Krężnica Jara,51.1531894,22.4663407
Książki,53.329983,19.0675367
Księginice,51.2422343,16.76381
Kubice,50.4757578,17.4428593
Kudowa-Zdrój,50.4298044,16.2440979
Kulice Tczewskie,53.8795091,18.6904982
Kundzin,53.4394826,23.5908597
Kunowice,52.3418192,14.6390664
Kunów,50.9678565,21.2953181
Kupienino,52.2573853,15.6140108
Kuriany,53.1112174,23.3213652
Kusięta Nowe,50.7778813,19.2615646
Kutno,52.2270739,19.3481878
Kuźnia Raciborska,50.2005179,18.2984938
Kuźnica (Hel),54.7362391,18.5766364
Kuźnica Białostocka,53.5119984,23.6424065
Kwiatki,53.5783596,18.4215479
Kwieciszowice,50.9242122,15.5036777
Kórnik,52.282072,17.1031943
Kąty Wrocławskie,51.0379927,16.7499748
Kędzierzyn-Koźle,50.3450593,18.2046067
Kędzierzyn-Koźle Azoty,,
Kędzierzyn-Koźle Przystanek,50.3506048,18.1545116
Kędzierzyn-Koźle Zachodnie,50.3466453,18.1314695
Kępa,50.6538422,22.0326153
Kępno,51.2918345,18.0009731
Kęszyce,52.1382426,20.1479978
Kętrzyn,54.0724948,21.3862371
Kęty,49.880666,19.2267688
Kęty Podlesie,49.8781966,19.1968156
Kłaj,50.0017237,20.3013956
Kłodawa,52.2273855,18.8905808
Kłodzko Główne,50.4513332,16.6567711
Kłodzko Miasto,50.4357859,16.6586112
Kłokowa,49.9531127,20.9571423
Kłomnice,50.9159863,19.3414573
Lachowice Centrum,49.7123512,19.4731414
Laliki,49.5229293,19.0049877
Lasek,49.4986106,19.9797929
Laski,52.0365937,15.3017813
Laski Lubuskie,52.4597354,14.7127738
Laski Odrzańskie,,
Laski Tucholskie,53.6662858,18.2080201
Laskowice Oleskie,50.8560656,18.0949047
Laskowice Pomorskie,53.4910465,18.4559143
Laskownica,52.9158754,17.2510652
Lasocice,51.8158978,16.4859752
Lasów,51.2251921,15.0350975
Lednogóra,52.4909192,17.3631455
Legionowo,52.4014565,20.9415879
Legionowo Przystanek,52.4112791,20.9143552
Legnica,51.2140928,16.1696549
Leokadia,51.7680268,21.6316698
Leopoldów,51.6682485,22.0125677
Lesiów,51.4793867,21.1937229
Lesko Łukawica,49.5054452,22.3354033
Leszczydół,52.6463276,21.4694902
Leszczyny,50.1397517,18.6176364
Leszno,51.845967,16.5654713
Leszno Górne,51.4668621,15.6160725
Letnica,51.889974,15.3188751
Lewickie,53.0283503,23.1248246
Lewin Brzeski,50.7581502,17.6153236
Lewin Kłodzki,50.4055371,16.2746913
Lewki,52.7302134,23.2115546
Leńcze,49.8920511,19.7299491
Leśnice,54.5141212,17.6691043
Leśniczówka,51.0495381,22.3566479
Leżajsk,50.2638262,22.4199891
Lichkov,50.0972682,16.6589782
Ligota Toszecka,50.4563015,18.463947
Ligowiec,52.4350895,17.0369863
Linkowo,54.0905415,21.2655243
Linowo,53.4111842,19.0331349
Lipa,50.689287,22.0681452
Lipce Reymontowskie,51.9052164,19.9430864
Lipienica,53.4463692,18.1125203
Lipinki,53.4639452,19.3172255
Lipinki Łużyckie,,
Lipińskie Małe,53.7363431,22.3975964
Lipka Krajeńska,53.4973139,17.2573362
Lipki,50.8982491,17.3725159
Lipno Nowe,51.918961,16.5705873
Lipowa Tucholska,53.7539307,18.1088728
Lipowa Śląska,50.7371016,17.4271259
Lipowe Pole,51.1552437,20.9010905
Lipusz,54.0967518,17.7803879
Lisewo,54.0929259,18.8257234
Lisie Pole,53.0222489,14.4506264
Lisów,50.7208436,18.791065
Lizawice,50.9722614,17.214393
Lotyń,53.5999291,16.7801356
Lubaczów,50.1658122,23.1257623
Lubajny,53.7000219,20.0268853
Lubania-Lipiny,,
Lubanice,51.6922486,15.1208567
Lubanie,52.7430046,18.9241433
Lubartów,51.4456443,22.6082467
Lubartów Lipowa,51.4642177,22.5995145
Lubartów Słowackiego,51.4732458,22.6052042
Lubaszowa,49.8653915,21.0371084
Lubań Śląski,51.1113578,15.2935413
Lubiewo,53.9156801,14.4153554
Lubin,51.3960505,16.1935499
Lubin Stadion,51.4083304,16.199074
Lublin AIRPORT,,
Lublin Główny,51.231292,22.5689637
Lublin Ponikwoda,51.266083,22.6059708
Lublin Północny,51.2422757,22.5995426
Lublin Zachodni,51.2189337,22.508927
Lublin Zadębie,51.2580227,22.6100597
Lublin Zemborzyce,51.1715012,22.5028874
Lubliniec,50.6731838,18.6900333
Lubnia,53.9356093,17.7423135
Luboń koło Poznania,52.3442196,16.8929038
Lubycza Królewska,50.3397838,23.5300758
Lubzina,50.0722455,21.5293798
Luciążanka,51.2772181,19.6481747
Lucynów,52.5532197,21.4592675
Ludwikowice Kłodzkie,50.6194857,16.4817911
Ludynia,50.8518711,20.1626707
Ludynia Dwór,50.8474283,20.1141411
Lusławice,50.7609031,19.3880188
Luzino,54.5669472,18.1025716
Lębork,54.5336204,17.7502364
Lębork Mosty,54.5500964,17.7929001
Lębork Nowy Świat,54.5454345,17.7344576
Lędziechowo,54.6452295,17.6816288
Machnacz,53.3314851,23.3179722
Majdan,51.1483852,22.4264672
Majdan Królewski,50.3789379,21.7252267
Majdan Królewski Podlasek,50.3628998,21.7366808
Majewo,53.8018664,18.6795051
Maksymilianowo,53.2145607,18.0294586
Maków Podhalański,49.7269257,19.6768811
Malbork,54.0359714,19.0431501
Malbork Kałdowo,54.0473638,19.0239691
Malczyce,51.2157553,16.4861387
Marcinkowo,53.6954576,20.6710772
Marcinków,51.0933343,20.9799841
Marcinowice Świdnickie,50.8768644,16.5868882
Marciszów,50.8514982,16.0076011
Markuszowa,49.8740403,21.7056871
Martiany,54.0266164,21.5167989
Masłońskie Natalin,50.6511154,19.2531938
Matysy,51.9399725,22.4937614
Maziły,50.4050595,23.3146337
Małaszewicze,52.0271383,23.5312551
Małdyty,53.921159,19.7356245
Małe Gacno,53.6099197,18.1095022
Małkinia,52.6943171,22.0337964
Małogoszcz,50.8502132,20.272798
Małomice,51.5496863,15.4469427
Małowice Wołowskie,51.4044231,16.4714106
Mańkowice,50.4891479,17.4770279
Medyka,49.8046066,22.9461348
Medyka Rozrządowa,49.794127,22.9102598
Medyka Towarowa,49.7861557,22.8839658
Mezimesti,50.6265578,16.2429861
Mełno,53.4369061,18.947402
Miasteczko Krajeńskie,53.0926241,17.0202274
Miasteczko Śląskie,50.4976088,18.9002346
Miały,52.8092598,16.1759279
Michalczew,51.8438815,21.1208851
Michalin,52.1482862,21.2245038
Miechów,50.3535965,20.0107404
Miedwiecko,53.3646173,14.9252161
Mienia,52.1493237,21.6871933
Mieroszów,50.6693093,16.1933497
Mierzęcin Strzelecki,52.9493839,15.832722
Mieszkowice,52.7817383,14.4858725
Mieszków,52.0231581,17.4405874
Mietków,50.9851285,16.6559473
Mika,51.6733447,21.7473889
Mikołajki Pomorskie,53.8497887,19.1582894
Mikołów,50.1728595,18.8992953
Mikołów Jamna,50.1942485,18.9231576
Mikłasze,52.7269011,23.3158808
Milanówek,52.1250226,20.6678061
Milcz,53.0424236,16.8568339
Milcza,49.6056211,21.9027386
Milejów,51.3553302,19.6757123
Milicz,51.5273812,17.2950351
Milik,49.3457897,20.8504697
Milówka,49.5550153,19.0935492
Milówka Zabawa,49.5400451,19.1027864
Minkowice,51.2173349,22.7640633
Minkowice Oławskie,51.0118022,17.4570716
Misie,51.9593226,22.6882562
Miąsowa,50.7194055,20.3651331
Międzyborów,52.063606,20.4824691
Międzybórz Sycowski,51.4010511,17.6529599
Międzylesie,50.14409,16.6549623
Międzyrzec Podlaski,51.9759905,22.7858401
Międzyrzecz,52.4451469,15.5931649
Międzyzdroje,53.9242439,14.4550784
Miękinia,51.1882529,16.7395994
Miłkowice,51.2555649,16.0546142
Miłobądz,54.1471326,18.7405274
Miłocin Lubelski,51.2689265,22.312265
Miłogoszcz,54.2053348,15.9089548
Mińsk Mazowiecki,52.1759715,21.5525422
Mińsk Mazowiecki Anielina,52.1677905,21.5855346
Mleczewo,53.9137425,19.1229124
Mockava,54.3282432,23.355681
Modlin,52.4439511,20.7049748
Modła,51.3756062,15.8135562
Mogilno,52.6585904,17.9461751
Mokra Wieś,52.4574545,21.4999296
Mokre,50.7079915,23.2053556
Mokronos Górny,51.0788759,16.9087418
Mokrz,52.7410152,16.2783425
Mokrzyca Wielka,53.8744379,14.5804285
Mordy,52.1959016,22.4969084
Mordy Miasto,52.2032491,22.5209989
Morze,52.7303321,23.4113238
Morzeszczyn,53.836734,18.6862241
Morzyca,53.2185805,15.1553346
Morąg,53.9190188,19.9228513
Morąg Kolonia,53.9098754,19.9457669
Mosina,52.2395809,16.8509514
Mostki,52.2689042,15.3957564
Mostówka,52.5190722,21.4420693
Moszczenica,51.5034799,19.7004196
Motycz,51.2214247,22.4235028
Motycz Leśny,51.2377944,22.3721635
Mońki,53.4022547,22.7968231
Mościsko Dzierżoniowskie,50.7721117,16.5801951
Mrozy,52.163992,21.800979
Mrozów,51.1836569,16.7939469
Mrzezino,54.6530081,18.4130307
Mszalnica,49.592876,20.8286281
Munina,49.9903288,22.7185464
Murowana Goślina,52.5750843,17.0157429
Muszyna,49.3456458,20.8933507
Muszyna Zdrój,49.3580229,20.8966605
Myszków,50.5743086,19.3288118
Myszków Mrzygłód,50.5440111,19.3770692
Myszków Nowa Wieś,50.5948329,19.2915394
Myszków Światowit,50.5655826,19.3597259
Mysłaków,52.0924122,20.0163267
Mysłowice,50.2378389,19.1416677
Mysłowice Brzezinka,50.1971369,19.1545344
Mysłowice Brzęczkowice,50.2132882,19.1470967
Mysłowice Kosztowy,50.170755,19.1622075
Myśliczyn,50.5256192,17.3282587
Mąkoszyce,50.939555,17.6310588
Męcka Wola,51.6091087,18.8466586
Mława,53.1261389,20.3509135
Mława Miasto,53.1087507,20.3640848
Młodów,49.4691923,20.6951035
Młyńsko,50.9895358,15.4504497
Mścice,54.2142832,16.0731846
Nadolice Małe,51.081793,17.2194695
Nadolice Wielkie,51.0798631,17.2508318
Najmowo,53.3067585,19.3217942
Nakło nad Notecią,53.1425693,17.6071694
Nakło Śląskie,50.4299172,18.9027965
Namysłów,51.0743908,17.717021
Namyślin,52.6781517,14.5704514
Nasielsk,52.5728113,20.7680833
Naterki,53.7462262,20.3766091
Nawra,53.2032024,18.4848945
Nałęczów,51.3180443,22.2131809
Nekla,52.3543793,17.4010747
Nicwałd,53.4597846,18.8799463
Nidzica,53.3579726,20.4139705
Niedoradz,51.8654598,15.6643151
Niedrzwica,51.1140498,22.3766144
Niedrzwica Kościelna,51.0797728,22.3637081
Niedźwiedź,50.204323,20.0809326
Niedźwiedź Wielkopolski,51.485947,17.8837268
Niegocin,54.0196517,21.7380325
Niemce,51.3626462,22.6465252
Niemojki,52.2587478,22.7015016
Nieszawa Waganiec,52.8030127,18.8701947
Nietkowice,52.0577958,15.3506409
Nietków,52.0258122,15.3437093
Niewodnica,53.0825979,23.0457628
Nisko,50.5142737,22.1403337
Niziny,49.878685,22.8618694
Nosówko,54.0925264,16.0523135
Nowa Dęba,50.4159085,21.739802
Nowa Grobla,50.0887949,22.9935856
Nowa Iwiczna,52.0912946,20.9952674
Nowa Ruda,50.5775651,16.4965611
Nowa Ruda Zdrojowisko,,
Nowa Sarzyna,50.3202373,22.3483908
Nowa Sucha,52.1614291,20.1722182
Nowa Sól,51.7989604,15.7087987
Nowa Wieś Cierpkie,54.0244943,19.6564458
Nowa Wieś Ełcka,53.7719586,22.3236706
Nowa Wieś Lęborska,54.5586158,17.721599
Nowa Wieś Wielka,52.9685059,18.0965381
Nowe Drezdenko,52.8537959,15.8339506
Nowe Dębe Wielkie,52.1933721,21.4402024
Nowe Kutnowskie,52.2377483,19.226612
Nowe Skalmierzyce,51.7080628,17.9979123
Nowiny,50.4491828,23.1413793
Nowiny Wielkie,52.6726521,15.0029376
Nowogard,53.6662947,15.1210508
Nowogród Bobrzański,51.8120021,15.2443592
Nowogród Osiedle,51.7950434,15.2255738
Nowosielce,49.562383,22.0856166
Nowy Bieruń,50.0729534,19.1855382
Nowy Dwór Mazowiecki,52.4252729,20.7240617
Nowy Las,50.3621132,17.4136556
Nowy Młyn,54.0663988,21.3275327
Nowy Nurzec,52.4725867,23.1768754
Nowy Sącz,49.6065321,20.7026731
Nowy Sącz Biegonice,49.5859481,20.6603857
Nowy Sącz Jamnica,49.5874811,20.7432764
Nowy Targ,49.4725781,20.0158605
Nowy Tomyśl,52.3041129,16.1331351
Nowy Zagórz,49.5211711,22.2591372
Nowy Łupków,49.2524172,22.0829553
Nowy Świętów,50.3776729,17.3695627
Nurzec,52.4600632,23.082982
Nysa,50.4776491,17.3419525
Nysa Wschodnia,50.4658497,17.3585986
Nędza,50.1563369,18.2916143
Nędza Wieś,50.1647143,18.3127058
Oborniki Wielkopolskie,52.6576641,16.8297469
Oborniki Wielkopolskie Miasto,52.6456555,16.8203328
Oborniki Śląskie,51.2996135,16.907326
Oborzyska Stare,52.110067,16.7004667
Obra Stara,51.8872906,17.4492919
Ociąż,51.7020528,17.9335518
Odolanów,51.574591,17.6677164
Ogrodniki,52.0008059,23.239602
Okmiany,51.2709452,15.7786078
Okonek,53.5201758,16.8305415
Okrzeja,51.7316231,22.135915
Okrąglica,51.4372011,15.1816157
Olesno Śląskie,50.8820722,18.4248341
Oleszyce,50.1571126,23.0366672
Oleśnica,51.2006267,17.3864167
Oleśnica Rataje,51.2165073,17.3646194
Olkusz,50.2742791,19.5714418
Olszanka,50.7951732,17.4776759
Olsztyn Dajtki,53.7657946,20.4383737
Olsztyn Gutkowo,53.8089438,20.4023057
Olsztyn Główny,53.7856553,20.4972517
Olsztyn Jezioro Ukiel,53.7836994,20.4496645
Olsztyn Likusy,53.7895176,20.4449467
Olsztyn Redykajny,53.7965237,20.4353208
Olsztyn Zachodni,53.7787258,20.4691011
Olsztyn Śródmieście,53.7827386,20.4825727
Olsztynek,53.5845081,20.2948244
Olszyna Lubańska,51.06969,15.3806451
Olszyny,53.5538294,21.1062698
Olza,49.9600811,18.3381385
Opalenica,52.3097374,16.4003069
Opatówek,51.7433692,18.2274685
Opoczno,51.3728629,20.2715067
Opoczno Południe,51.3591831,20.2324376
Opole Borki,50.7425203,17.8821606
Opole Chmielowice,50.6446555,17.8668044
Opole Czarnowąsy,50.7164289,17.9031749
Opole Gosławice,50.6734335,17.9874787
Opole Groszowice,50.6364185,17.9548461
Opole Grotowice,50.609688,17.9760175
Opole Główne,50.6616475,17.9272072
Opole Wschodnie,50.6743766,17.9345119
Opole Zachodnie,50.6608418,17.8984397
Orlanka,52.726926,23.348457
Orzechowicze,52.8108063,23.1587625
Orzesze,50.1543853,18.7776893
Orzesze Jaśkowice,50.1447994,18.740753
Orzesze Miasto,,
Orzeszkowo,52.6823227,23.5341854
Orzeszków,51.3938906,16.50824
Osetnica,51.2618175,15.8473351
Osie,53.5937036,18.3471626
Osielec,49.6749774,19.755781
Osola,51.3383104,16.8656407
Osowiec,53.472892,22.6568336
Osowiec Przystanek,50.7529631,18.0434266
Ostromecko,53.1438519,18.2145142
Ostrowie Biebrzańskie,53.7196003,23.2440694
Ostrowiec Świętokrzyski,50.9329872,21.3796571
Ostrowite koło Jabłonowa,53.4331241,19.2672606
Ostrowy,52.2990366,19.1919623
Ostrołęka,53.0561608,21.6171129
Ostrzeszów,51.4295172,17.9405633
Ostróda,53.6995755,19.9508577
Ostrów Wielkopolski,51.6492287,17.8052356
Ostrów koło Radymna,49.954119,22.7843173
Ostrówek Węgrowski,52.5596947,21.7507267
Ostrówki koło Chodzieży,52.9340659,16.9262693
Otmice,50.5511594,18.1241601
Otmuchów,50.4741317,17.1525631
Otoczna,52.3253308,17.6915145
Otusz,52.3466915,16.5973943
Otwock,52.1095585,21.2630951
Otłoczyn,52.9127123,18.6926443
Owińska,52.5114361,16.987596
Ozimek,50.6699766,18.2093158
Ozorków,51.9724986,19.2659337
Ozorków Nowe Miasto,51.9589027,19.2696017
Oława,50.9307485,17.2974306
Oświęcim,50.0417378,19.1999186
Ożarów Mazowiecki,52.2074095,20.7964405
Pabianice,51.6609304,19.3249765
Pacholęta,53.1712205,14.4714457
Paczkowo,52.397001,17.1582163
Paczków,50.4784247,17.0110551
Paczyna,50.4122216,18.5719614
Pakosławice,50.545289,17.3533194
Palędzie,52.3745525,16.7488907
Pamiątkowo,52.5536744,16.6850581
Panki,50.8966788,18.7484949
Papowo Toruńskie,53.0684825,18.6938551
Parczew,51.6262047,22.8716065
Parczew Kolejowa,51.6345824,22.8810021
Parkowo,52.7081832,16.9150227
Parlin,53.3705998,18.2691021
Parzniew,52.1564582,20.7631405
Parłówko,53.845684,14.7491804
Pasieki,52.8539741,21.5605238
Pasikurowice,51.2089611,17.1096101
Pasym,53.6322769,20.7645938
Pasłęk,54.0555905,19.6564508
Patków,52.2708971,22.7454902
Pawonków,50.6807074,18.5680338
Pawłów Wielkopolski,51.4218494,17.6547216
Pawłówek,53.1521834,17.8561161
Pałecznica,51.4903854,22.6589533
Pelplin,53.9269222,18.707277
Perkowice,51.9966004,23.2799704
Petrykozy,51.2955197,20.3633991
Pełkinie,50.0477476,22.6117221
Piasecznica,52.2100168,20.344358
Piaseczno,52.0665292,21.0172915
Piasek,50.0126079,18.9401765
Piastoszyn,53.6209737,17.7297858
Piastów,52.1825327,20.8425912
Piechowice,50.8517025,15.5914852
Piechowice Dolne,50.8503917,15.6168746
Pieczyska,51.2851561,18.2203811
Piekoszów,50.8706552,20.447284
Pierwoszów Miłocin,51.2552194,17.0989112
Pierzchno,52.2633303,17.1573486
Pierzyska,52.5056822,17.4826237
Pierściec,49.8304442,18.8133522
Piesienice,53.9650206,18.3956491
Pietrzykowice Żywieckie,49.7099014,19.1720786
Pieńsk,51.2452131,15.0468919
Pikus,53.6559614,19.7370043
Pilawa,51.9559631,21.5333322
Pilchów,50.6167561,22.0268935
Pinczyn,53.9622331,18.3483343
Pionki Zachodnie,51.4719333,21.4412572
Piotrków Kujawski,52.5377739,18.5194706
Piotrków Trybunalski,51.4104653,19.6846413
Pisz,53.6318052,21.793242
Pisz Wschodni,53.6273499,21.8310634
Piwniczna,49.4316718,20.7177333
Piwniczna-Zdrój,49.440639,20.7173704
Piła Główna,53.1429271,16.7445507
Piła Kalina,53.1014068,16.7878334
Platerów,52.3011598,22.8211063
Pleszew,51.8925872,17.7322175
Pliszka,52.2047612,15.0166935
Pludry,50.6647518,18.4700911
Pobiedziska,52.4793001,17.2778502
Pobiedziska Letnisko,52.4742927,17.2397514
Podbiele,52.6917948,23.2104692
Podborsko,53.9340303,16.1388005
Podlasek,53.5580586,22.5347216
Podlesie,50.7649503,19.6035627
Podlesiec,52.9362891,15.877874
Podolany,49.898213,19.7534202
Podstolice,52.3414022,17.4815393
Podzamcze,51.2096811,22.7874155
Podłęże,50.0183056,20.1686562
Pogorzel Warszawska,52.0946963,21.340558
Pogorzel Wielka,53.7071973,22.149859
Pogorzelice,54.5039354,17.6419604
Pogwizdów,49.8066711,18.5976048
Pokrzywnica,50.343886,18.0795633
Polanica-Zdrój,,
Polichna Kraśnicka,50.8310601,22.3064774
Policzna,52.5890519,23.4233514
Pomiechówek,52.4733014,20.7433801
Popielów,50.8295577,17.7624114
Poraj,50.6843363,19.2093257
Porażyn,52.3022822,16.2868579
Poronin,49.3432232,20.0035237
Porosiuki,52.0118408,23.0622527
Potok,50.6173329,20.1964017
Potok Kraśnicki,50.7964418,22.1632222
Potęgowo,54.4851812,17.4856226
Powroźnik,49.3681641,20.9397752
Poznań Antoninek,52.409561,17.0284965
Poznań Dębiec,52.3681804,16.9010752
Poznań Dębina,52.3734621,16.9106138
Poznań Garbary,52.4164409,16.9368434
Poznań Górczyn,52.38069,16.8797367
Poznań Główny,52.4016269,16.9115788
Poznań Junikowo,52.3778621,16.8254704
Poznań Karolin,52.4384218,16.9814064
Poznań Krzesiny,52.3416969,16.9755354
Poznań Podolany,52.4476179,16.8805455
Poznań Starołęka,52.3662312,16.9342759
Poznań Strzeszyn,52.4607152,16.8654899
Poznań Wola,52.4336002,16.8501069
Poznań Wschód,52.4182197,16.971483
Prabuty,53.7585393,19.2099719
Prabuty Góry,52.8063818,21.5699234
Promno,52.4716837,17.2148304
Prostki,53.6951398,22.4317785
Prostyń,52.6592661,21.9610673
Pruchna,49.8787706,18.6883636
Prudnik,50.3291762,17.5776593
Pruszcz Gdański,54.2572262,18.6469706
Pruszcz Pomorski,53.3341179,18.1985444
Pruszków,52.1682638,20.7990569
Przebędowo,52.5834446,17.0233939
Przecza,50.7329841,17.667758
Przedmoście Święte,51.190497,16.6646025
Przemyśl Główny,49.7837223,22.7778447
Przemyśl Zasanie,49.7934749,22.7737284
Przeradz,53.7702435,16.5370751
Przetycz,52.7690624,21.5511326
Przeworsk,50.0670608,22.505303
Przybówka,49.7987893,21.6474489
Przygodzice,51.5699571,17.8299969
Przysieczyn,52.7536907,17.1839701
Przysieka Stara,52.036247,16.6043406
Przytkowice,49.8965368,19.6799283
Przywory Opolskie,50.5816022,17.9890707
Przyłubie,53.0497449,18.3242696
Pszczyna,49.974984,18.9534358
Pszczółki,54.1745808,18.7016997
Pszenno,50.8561015,16.5302463
Ptaszkowa,49.6033821,20.8816083
Ptaszkowo,,
Ptusza,53.364651,16.7840208
Puck,54.7148824,18.4086265
Pustków Żurawski,50.9541744,16.8573248
Puszczykowo,52.2959107,16.8712853
Puszczykówko,52.2723056,16.8637101
Pułankowice,50.9590837,22.306388
Puławy,51.4104568,22.0114222
Puławy Azoty,51.4750247,21.9490895
Puławy Chemia,51.4465088,21.9682653
Puławy Miasto,51.4277854,21.9842322
Pyskowice,50.3838426,18.6190932
Pyzówka,49.5210367,19.9604718
Pątnów Wieluński,51.1597453,18.6335214
Pęckowo,52.6642563,16.4888302
Pęgów,51.2471851,16.9271182
Pępowo Kartuskie,54.3666953,18.4014002
Pławna,49.7550126,20.9509554
Płochocin,52.2000567,20.7019919
Płociczno koło Suwałk,54.0383328,22.9488043
Płock,52.5527316,19.7126913
Płoty,53.8082446,15.2613164
Płytnica,53.2949779,16.7506089
Raba Wyżna,49.5657148,19.8818289
Rabka-Zdrój,49.6093501,19.9518717
Racewo,53.4974481,23.4846636
Racibory,52.9290158,22.7099944
Racibórz,50.0903312,18.2263782
Racibórz Markowice,50.1132299,18.270162
Racławice Śląskie,50.3121016,17.7606123
Racławki,53.6682076,17.6539216
Radkowice,50.7802204,20.5284185
Radliczyce,51.7232566,18.3500285
Radlin Obszary,50.0412504,18.4946733
Radnica,52.0900365,15.2691688
Radom Gołębiów,51.4122751,21.1879639
Radom Główny,51.3909217,21.1553821
Radom Południowy,51.3494792,21.1011097
Radom Północny,51.4195991,21.1865047
Radom Stara Wola,51.4392705,21.1848471
Radomsko,51.0745339,19.4376128
Radomyśl,52.0311909,22.3810282
Radymno,49.939721,22.8283212
Radziechowy Wieprz,49.6473213,19.1639249
Radzionków,50.4088286,18.9149136
Radzionków Rojca,50.3966027,18.9009654
Radziszów,49.9177493,19.8091978
Radziszów Centrum,49.9369203,19.8068826
Radziwiłłów Mazowiecki,52.0003323,20.2904767
Radzyń Podlaski,51.8271136,22.6688263
Radów,52.4318892,14.7424121
Rajcza,49.5171209,19.1122173
Rajcza Centrum,49.5068919,19.1006106
Rajsk,52.8439165,23.1411311
Rakoniewice,52.1388356,16.2652941
Ramiszów,51.1931981,17.0983438
Raszowa,50.3885886,18.1603495
Raszówka,51.3022101,16.181734
Rawicz,51.6092258,16.8393481
Reblino,54.4306598,16.9182264
Recz Pomorski,53.2706459,15.5614283
Recław,53.8452804,14.6435034
Reda,54.59495,18.353264
Reda Pieleszewo,54.6026799,18.3176103
Reda Rekowo,54.6319745,18.3636073
Redaki,53.6710483,19.4082257
Rejowiec,51.1176992,23.238267
Reptowo,53.3724541,14.8633287
Rogalice,50.9634035,17.5979943
Rogoźnica,51.0146095,16.3017005
Rogoźnica koło Rzeszowa,50.1168561,21.9688852
Rogoźno Wielkopolskie,52.7546243,16.9718117
Rogów,51.8179312,19.8860058
Rogów Sobócki,50.9341408,16.7591364
Rogóżno koło Łańcuta,50.0835725,22.362513
Rokiciny,51.6675458,19.780676
Rokiciny Podhalańskie,49.5786558,19.90588
Rokietnica,52.5110093,16.7555149
Rokita,53.7665485,14.8548624
Rokitki,51.3354313,15.8932471
Rokitnia Stara,51.6120199,21.7982828
Ropczyce,50.0783583,21.5798601
Ropczyce Witkowice,50.0772522,21.6282313
Rosochatka,53.7054007,18.1146218
Rostarzewo,52.1350298,16.2072226
Roszkowo Wągrowieckie,52.7087447,17.1762878
Rozedranka,53.3590109,23.365454
Rozprza,51.3015856,19.6601416
Roztoki Bystrzyckie,50.1876458,16.6657548
Rożki,51.3388407,21.0540748
Rożnowo,52.6789246,16.8712417
Ruchocice,52.1774264,16.3421418
Ruciane-Nida,53.6488553,21.5636568
Ruciane-Nida Zachód,,
Ruda,53.5893175,22.5206939
Ruda Białaczowska,51.2623613,20.3823473
Ruda Chebzie,50.3039358,18.877762
Ruda Talubska,51.8528534,21.58977
Ruda Wielka,51.3023641,21.044062
Ruda Śląska,50.3159215,18.8505569
Rudawa,50.1188183,19.7193337
Rudna Gwizdanów,51.5293314,16.2808668
Rudna Miasto,51.506068,16.2701003
Rudna Wielka,50.0811344,21.9414971
Rudnik,51.2876442,22.622535
Rudnik nad Sanem,50.4357524,22.2491867
Rudniki koło Częstochowy,50.8782089,19.2322503
Rudyszwałd,49.9403201,18.3032254
Rudzienice Suskie,53.6385641,19.6694883
Rumia,54.5691391,18.3866641
Rumia Janowo,54.5591342,18.4053977
Runowo Pomorskie,53.5557588,15.5294538
Rurka,53.4935696,14.7958721
Rusinowice,50.6490102,18.7637727
Ruskie Piaski,,
Ruszów,51.401063,15.1766348
Rutkowice,52.3614625,19.1590995
Rybienko,52.5822066,21.4583808
Rybnica,50.9104773,15.6458441
Rybnik,50.0889081,18.547546
Rybnik Niedobczyce,50.0664565,18.4946596
Rybnik Niewiadom,50.0693711,18.4692579
Rybnik Paruszowiec,50.1027883,18.5656133
Rybnik Rymer,50.0562133,18.4971621
Rybnik Towarowy,50.0666138,18.5153637
Rycerka,49.4988473,19.0818761
Rychnowo Wielkie,53.1422824,18.8138237
Rydułtowy,50.0690055,18.4259766
Rydzyna,51.7712587,16.6464219
Ryki,51.6063421,21.9221638
Rykoszyn,50.8681814,20.3788822
Rynarcice,51.4730431,16.227585
Rynkowo Wiadukt,53.152055,18.0053934
Rypin,53.0685895,19.4276249
Rytel,53.7482309,17.7251246
Rytel Wieś,53.7605284,17.7731967
Rytro,49.4863481,20.6802285
Rzeczyca,50.8399415,22.2081809
Rzeczyca-Kolonia,,
Rzepedź,49.371741,22.1120516
Rzepin,52.3499173,14.8152866
Rzerzęczyce,50.897353,19.3284143
Rzeszotary,51.250263,16.1661555
Rzeszów Główny,50.0432134,22.0058076
Rzeszów Miłocin,50.0756228,21.9872147
Rzeszów Osiedle,50.0225878,21.9777599
Rzeszów Staroniwa,50.038491,21.9897333
Rzeszów Zachodni,50.0534458,21.9942049
Rzeszów Załęże,50.0585326,22.0693278
Rzeszów Zwięczyca,50.0059268,21.957168
Rzezawa,49.9847881,20.5151604
Rzozów,49.9456881,19.8043671
Różanystok,53.6230313,23.3924441
Różyny,54.2114895,18.6621988
Rąbino,53.869412,15.9523557
Rębiechowo,54.3887311,18.4216153
Rębiszów,50.9482194,15.456031
Rębusz,53.0531047,15.5919467
Sabinka,52.1731502,22.1726362
Sadowice Wrocławskie,51.0560102,16.8246851
Sadowne Węgrowskie,52.6053167,21.8585073
Sadurki,51.2862759,22.2844076
Samborowo,53.6718417,19.8207355
Samostrzel,53.12773,17.4337935
Sandomierz,50.6602949,21.7652498
Sanok,49.5527732,22.2114867
Sanok Dąbrówka,49.5690608,22.1594931
Sanok Miasto,49.5559375,22.1985854
Santok,52.7427788,15.4149377
Sarbiewo,52.8189618,15.5451274
Sarnaki,52.3251147,22.8794989
Sarnów,51.8428429,22.2958669
Serock,53.3610452,18.0897326
Seroki,52.196476,20.4675803
Sidra,53.5447767,23.4469991
Siechnice,51.0382566,17.1425423
Siedlce,52.1619594,22.2715732
Siedlce Wschodnie,52.1443602,22.2978312
Siedlce Zachodnie,52.1735179,22.2355139
Siedlec Trzebnicki,51.2336489,17.1188187
Siedliska Tomaszowskie,50.2615995,23.5543712
Siedliska koło Tuchowa,49.8605481,21.0193363
Siemiatycze,52.3907594,22.9447052
Sieniawa,49.5389829,19.9225368
Sieniawa Żarska,,
Sieradz,51.5976548,18.7136441
Sieradz Męka,51.6151724,18.7765671
Sieradz Warta,51.6030132,18.7303652
Sieraków Śląski,50.798823,18.5936025
Sierpc,52.8478622,19.653921
Sierpów,52.0189258,19.2221665
Silno,53.6441717,17.693352
Sitkówka Nowiny,50.8182527,20.5502925
Sitno,51.9857752,22.8659931
Sitowa,51.3389505,20.3244279
Siódmak,53.524534,20.9715815
Skalmierz,51.6972854,18.4302591
Skarżysko Kościelne,51.1221528,20.9176662
Skarżysko Milica,51.1080901,20.8505854
Skarżysko Zachodnie,51.1004358,20.8595709
Skarżysko-Kamienna,51.1161696,20.8821942
Skawa,49.6308442,19.8795231
Skawa Środkowa,49.6125553,19.9004584
Skawina,49.9773831,19.8231533
Skawina Jagielnia,49.9812125,19.84144
Skierniewice,51.9672793,20.1502998
Skierniewice Rawka,51.9775852,20.2213044
Skoczów,49.7933641,18.7899718
Skoczów Bajerki,49.7987323,18.8011749
Skoki,52.674211,17.1620316
Skoki - Borowa,51.5401372,21.8484147
Skokowa,51.3870459,16.8489048
Skoroszyce,50.5932399,17.3750628
Skorzewo,54.1648727,17.9809284
Skowarcz,54.1850526,18.6824389
Skrzynki,51.6021945,19.9669659
Smardy,50.9922429,18.1443157
Smardzew,51.8709783,19.4674785
Smardzów Wrocławski,51.0306256,17.0661408
Smolec,51.0715937,16.8819566
Smroków,50.274704,20.0466789
Smętowo,53.747959,18.6858934
Sobków,50.731303,20.4306276
Sobolew,51.7416616,21.6724904
Sobótka,50.9052765,16.7402431
Sobótka Zachodnia,50.9078368,16.7007723
Sobów,50.5922673,21.7356718
Sochaczew,52.2150468,20.2386642
Sokole Białostockie,53.0862218,23.5112116
Sokołowo Budzyńskie,52.8377563,16.9693932
Sokule,51.9979293,22.9572073
Sokółka,53.4031557,23.5066903
Solec Kujawski,53.0782444,18.2258941
Solec Wielkopolski,52.1097422,17.3195972
Solniki Wielkie,51.1540102,17.4938316
Somonino,54.2700924,18.1929812
Sopot,54.4400543,18.5623213
Sopot Kamienny Potok,54.4576401,18.5535799
Sopot Wyścigi,54.4312893,18.5652352
Sosnowe,52.175894,21.9406414
Sosnowiec Dańdówka,50.2654342,19.1731545
Sosnowiec Główny,50.27895,19.1263859
Sosnowiec Kazimierz,50.2881604,19.2317124
Sosnowiec Porąbka,50.2720968,19.2162721
Sosnowiec Południowy,50.2697299,19.1253609
Sowczyce,50.845887,18.5016873
Sowin,50.5555071,17.6090787
Sołtyków,51.1379985,20.690917
Sośnica Jarosławska,49.9015592,22.8515087
Sośnie Ostrowskie,51.4715395,17.6394539
Spychowo,53.591276,21.3550152
Spławie,52.2577115,18.0910722
Stalowa Wola,50.5623219,22.061035
Stalowa Wola Centrum,50.570227,22.0550645
Stalowa Wola Charzewice,50.6031517,22.0251942
Stalowa Wola Południe,50.5449264,22.0788926
Stalowa Wola Rozwadów,50.5913352,22.0419635
Staniszcze Małe,50.6642913,18.3188287
Stanisławice,49.9916622,20.3557439
Staniątki,50.0106477,20.2066857
Stanowice,50.930104,16.3745786
Stara Kamienica,50.9139896,15.5659104
Stara Wieś,52.0842594,21.3587966
Stara Łubianka,53.2319275,16.7053692
Starachowice,51.0515289,21.0580507
Starachowice Michałów,51.0150128,21.1084547
Starachowice Wschodnie,51.0419091,21.0787913
Starczów,50.5633556,16.9467303
Stare Berezowo,52.7318909,23.4535852
Stare Bielice,52.8534477,15.9217831
Stare Bojanowo,51.9959795,16.5849701
Stare Drzewce,51.7766045,16.195565
Stare Guty,53.6139448,21.924758
Stare Jabłonki,53.6912864,20.093359
Stare Kurowo,52.8544195,15.6776753
Stare Olesno,50.9155315,18.3749548
Stare Pole,54.05334,19.2056865
Stargard,53.339557,15.031126
Starogard Gdański,53.977148,18.5257736
Staropole Częstochowskie,50.7647169,19.5288669
Stary Grodków,50.6502421,17.377717
Stary Klukom,53.1319812,15.4550154
Stary Sącz,49.5596814,20.6433212
Stary Węgliniec,51.3076212,15.1951737
Stasin Polny,51.2132592,22.4736992
Staszów,,
Staw Kunowski,51.0052798,21.2456584
Stawiguda,53.650716,20.4075789
Steknica,54.7148976,17.5822762
Sterkowiec,49.9939482,20.6793729
Sterławki Małe,54.0117257,21.6464753
Sterławki Wielkie,54.0151049,21.5749245
Stogi Malborskie,54.0639673,18.9689952
Stok Lacki,52.1615892,22.3865124
Strabla,52.9015682,23.113327
Stramnica,54.1548959,15.6501165
Strażów,50.0674241,22.1145204
Stronie,49.8336147,19.6690954
Stronno,53.2857228,18.0592242
Strykowo Poznańskie,52.2435086,16.6138641
Stryków,51.9105816,19.5934226
Stryszów,49.8255815,19.62187
Strzałkowo,52.3106824,17.8058597
Strzebielino Morskie,54.5628928,18.028786
Strzegom,50.9745685,16.3589469
Strzelce Krajeńskie Wschód,52.8366823,15.5843095
Strzelce Kujawskie,52.3229173,19.3687984
Strzelce Opolskie,50.5167998,18.3063002
Strzelin,50.7842124,17.0602369
Strzyżyna,51.6936451,21.1727008
Strzyżyno Słupskie,54.4910505,17.3731999
Strzyżów nad Wisłokiem,49.8692459,21.8019518
Stróże,49.6548458,20.9761298
Studzianki Nowe,52.5378241,20.7514983
Styków Iłżecki,51.0108605,21.1513734
Stąporków,51.1433022,20.5748637
Stęszew,52.2802602,16.709436
Subkowy,53.9861304,18.7535814
Subkowy Centrum,54.0024999,18.7607226
Sucha Beskidzka,49.7406266,19.5807161
Sucha Beskidzka Zamek,49.7433887,19.6033988
Sucha Żyrardowska,52.0228796,20.3593707
Suchatówka,52.9103727,18.4800328
Suchedniów,51.0465577,20.8496965
Suchedniów Północny,51.0652814,20.8491495
Suchowolce,52.6173646,23.2836472
Suchy Bór Opolski,50.6572524,18.0368525
Sulejówek,52.2477432,21.2771058
Sulejówek Miłosna,52.2406542,21.2986542
Sulów,50.9053964,22.3332742
Sulęcinek,52.1386953,17.3088147
Sumina,50.1369801,18.4014853
Sumina Wieś,50.1218677,18.4105622
Surochów,50.0126317,22.7688743
Susiec,50.4160165,23.2271695
Susz,53.7111752,19.3291352
Suszka,50.5308079,16.8241793
Suwałki,54.1058765,22.9452519
Sułkowice,51.9269616,21.0923549
Swarożyn,54.0380451,18.6561771
Swarzewo,54.75259,18.3824283
Swarzędz,52.4042271,17.0740709
Swędów,51.9061036,19.5406034
Sycze,52.4292175,22.9984338
Szachy,51.9917193,22.910551
Szadkowice,51.4196465,20.1684603
Szaflary,49.4403437,20.0171168
Szaflary Wieś,49.4233997,20.0190341
Szamotuły,52.6019863,16.5883725
Szaniawy,51.9468075,22.5440432
Szarów,50.0095164,20.256743
Szastarka,50.853323,22.3318351
Szczaniec,52.2643757,15.6939492
Szczawne Kulaszne,49.4072176,22.1429552
Szczawno - Ciemnice,,
Szczebrzeszyn,50.6705338,22.9726117
Szczecin Dąbie,53.3913468,14.6704623
Szczecin Główny,53.4182413,14.5494069
Szczecin Podjuchy,53.3605502,14.5865928
Szczecin Port Centralny,53.4131022,14.5660693
Szczecin Załom,53.4287349,14.7422476
Szczecin Zdroje,53.3788244,14.636904
Szczecin Zdunowo,53.3832805,14.7628353
Szczecinek,53.6938225,16.7055139
Szczecinek Chyże,53.7184371,16.696577
Szczedrzykowice,51.2151503,16.35038
Szczepanowice,50.301151,20.0246598
Szczepanów,50.8983623,16.6251512
Szczepki,53.9668791,22.9845356
Szczytna,50.4083659,16.4497865
Szczytno,53.5602427,20.9966326
Szebnie,49.7561087,21.6155847
Szepietowo,52.8700412,22.5410554
Szeroki Bór,53.6397829,21.6994493
Szewce,51.2157095,16.9544591
Szewnica,52.4833294,21.5632998
Szklarska Poręba Dolna,50.8483578,15.5569553
Szklarska Poręba Górna,50.8326565,15.5187155
Szklarska Poręba Średnia,50.8384681,15.5399788
Szlachta,53.7628915,18.1197385
Szreniawa,52.3177927,16.8008044
Szybowice,50.344592,17.4811159
Szydłowiec,51.2079964,20.9234453
Szydłów,50.6060405,17.7050638
Szydłów Centrum,50.6052567,17.7183013
Szymankowo,54.0729169,18.926568
Szymany Lotnisko,53.4888854,20.9474684
Szymbory,52.8924322,22.6046366
Szymiszów,50.5282522,18.2244774
Szymocice,50.151106,18.3496721
Sól,49.4946374,19.0507018
Sól Kiczora,49.5171635,19.0313147
Sątopy,52.3032956,16.2035186
Sątopy-Samulewo,,
Sędzice,51.6288941,18.5700068
Sędziszów,50.5658817,20.0548996
Sędziszów Małopolski,50.0754413,21.6928596
Sędzisław,50.8134159,16.0698493
Sława Wielkopolska,52.6345955,17.1439686
Sławki,54.2574065,18.1763676
Sławków,50.2949248,19.3746476
Sławno,54.3556672,16.6696333
Słomianka,51.4018172,20.2037482
Słomniki,50.2486527,20.0640012
Słomniki Miasto,50.235873,20.0763665
Słonice,53.0907283,15.5184841
Słotwiny,51.7226079,19.8386994
Słowienkowo,54.2071546,15.9412396
Słubice,52.3358395,14.5947386
Słupca,52.2874158,17.8520524
Słupia,51.2518822,18.0414521
Słupsk,54.4678168,17.0163242
Taczanów,51.8409612,17.7561366
Tarchały Wielkie,51.5869871,17.701462
Targowiska,49.6495249,21.8218508
Tarnobrzeg,50.5678165,21.6961934
Tarnowiec,49.7362492,21.5778774
Tarnowiec Brzeski,50.9138886,17.6522238
Tarnowo Rogozińskie,52.8032354,16.9753756
Tarnowska Wola,50.4515952,21.7357423
Tarnowskie Góry,50.4460325,18.8644041
Tarnów,50.0053772,20.9748532
Tarnów Mościce,50.0064478,20.9257848
Tarnów Opolski,50.5720426,18.0778285
Tarzymiechy,50.8545719,23.1220821
Tarło,51.5064179,22.6865643
Tczew,54.0972478,18.7897812
Teresin Niepokalanów,52.2022073,20.4163976
Terespol,52.0740979,23.6013781
Terespol Pomorski,53.4095061,18.3513842
Tleń,53.6143929,18.2663476
Tomaszów Bolesławiecki,51.2860811,15.6800731
Tomaszów Mazowiecki,51.5469372,20.0336231
Topola-Osiedle,51.6128545,17.7619041
Toporów,52.2602013,15.2611547
Topór,52.5845746,21.811978
Toruń Czerniewice,52.9746537,18.6741753
Toruń Główny,53.0001062,18.6146297
Toruń Kluczyki,52.9900153,18.5783676
Toruń Miasto,53.0123138,18.6197194
Toruń Wschodni,53.0264709,18.6334589
Torzym,52.3124364,15.0595084
Toszek,50.4417146,18.5132578
Tołkiny,54.1173781,21.2356383
Trakiszki,54.2394528,23.2080095
Trawniki,51.1363715,22.9925855
Troszyn,53.8441619,14.7172873
Trypucie,53.0708294,23.0249055
Trzciana,50.0786088,21.8390984
Trzcianka,53.032931,16.4651147
Trzciniec,53.0858024,17.9480419
Trzcińsko,50.8832177,15.872031
Trzebaw Rosnówko,52.2964794,16.7671189
Trzebiatów,54.0603225,15.2775516
Trzebinia,50.1540182,19.4531632
Trzebnica,51.3040435,17.0632874
Trzemeszno,52.569871,17.8178353
Tuchola,53.5835933,17.8606117
Tuchów,49.8920631,21.0563042
Tuczno Krajeńskie,53.2189875,16.1754038
Tumlin,50.9674642,20.6021604
Tunel,50.4335314,19.9912127
Tuplice,51.671637,14.837212
Tuplice Dębinka,,
Turbia,50.6177994,21.972637
Turowo Pomorskie,53.6472607,16.7231701
Turzno,53.1007764,18.7364633
Turzno Kujawskie,52.8333971,18.7812253
Turzynów,52.2304703,19.0258668
Turów,50.7683869,19.3171916
Tułowice,50.5981708,17.649456
Tuły,50.8747286,18.1001145
Twarda Góra,53.6824769,18.6715195
Twardawa,50.3471329,17.9988609
Twardogóra,51.360263,17.4677429
Tychowo,53.92148,16.235068
Tychy,50.1357681,18.9641781
Tychy Aleja Bielska,50.117337,18.9823778
Tychy Grota Roweckiego,50.1141544,18.9860432
Tychy Lodowisko,50.1077384,19.0008785
Tychy Zachodnie,50.1211508,18.9787851
Tychy Żwaków,50.1100675,18.9531674
Tymień,54.2053705,15.8447314
Tłoki,52.1163556,16.172295
Tłuszcz,52.430439,21.4337187
Ubocze,51.0563184,15.4200276
Uherce,49.4654443,22.399967
Uhowo,53.0040195,22.9082822
Unieszewo,53.7290334,20.299749
Unisław Pomorski,53.2061787,18.3826938
Unisław Śląski,50.7110555,16.2242304
Urle,52.5073413,21.6222392
Ustanówek,51.996781,21.0600715
Ustka,54.578723,16.8608878
Ustronie Morskie,54.2005031,15.7492213
Wadowice,49.8853687,19.5016523
Wadowice Osiedle Podhalanin,49.8878256,19.4822121
Walawa,49.8626177,22.8571536
Waliły,53.1081538,23.6511505
Wandzin,51.3984808,22.6298966
Waplewo,53.5112827,20.355646
Wargowo,52.5842677,16.822766
Warka,51.793179,21.1693509
Warka Miasto,51.7811364,21.1774457
Warkocz,50.8293957,17.0463081
Warlubie,53.5890777,18.6231618
Warnowo,53.9283411,14.5352393
Warszawa Aleje Jerozolimskie,52.2057259,20.9411849
Warszawa Anin,52.212993,21.1599414
Warszawa Centralna,52.2288207,21.00316
Warszawa Choszczówka,52.3577057,20.9723613
Warszawa Dawidy,52.1285606,20.9911229
Warszawa Falenica,52.1620483,21.2106772
Warszawa Gdańska,52.2590955,20.9923588
Warszawa Gocławek,52.2371411,21.1354095
Warszawa Gołąbki,52.2084204,20.8642041
Warszawa Grochów,52.2536969,21.101828
Warszawa Grochów Grc,,
Warszawa Główna,52.2252007,20.9857491
Warszawa Jeziorki,52.1103103,20.9931266
Warszawa Lotnisko Chopina,52.1696272,20.9752099
Warszawa Miedzeszyn,52.1726622,21.2002174
Warszawa Międzylesie,52.2039216,21.168978
Warszawa Mokry Ług,52.2772783,21.1704615
Warszawa Ochota,52.2257629,20.990552
Warszawa Okęcie,52.1661431,20.9873566
Warszawa Olszynka Grochowska,52.2497745,21.1068857
Warszawa Podskarbińska,,
Warszawa Powiśle,52.2337064,21.0281295
Warszawa Powązki,52.2560347,20.9722548
Warszawa Praga,52.2775271,21.0223526
Warszawa Płudy,52.3341174,20.9858307
Warszawa Radość,52.1857228,21.1871497
Warszawa Rakowiec,52.196818,20.9660609
Warszawa Rembertów,52.2571084,21.158478
Warszawa Stadion,52.244745,21.0439777
Warszawa Służewiec,52.1807488,20.9870352
Warszawa Targówek,52.2643714,21.0512766
Warszawa Toruńska,52.2941826,21.0130377
Warszawa Ursus,52.1964444,20.8853672
Warszawa Ursus Niedźwiadek,52.1913242,20.8696007
Warszawa Ursus Północny,52.2056545,20.8898498
Warszawa Wawer,52.22348,21.1494647
Warszawa Wesoła,52.2540879,21.2242009
Warszawa Wola Grzybowska,52.2528154,21.250949
Warszawa Wschodnia,52.2515889,21.0523678
Warszawa Włochy,52.206229,20.9150217
Warszawa ZOO,52.2635233,21.0178245
Warszawa Zachodnia,52.2200537,20.9652095
Warszawa Śródmieście,52.2293788,21.0075878
Warszawa Żerań,52.314243,20.9988422
Warszawa Żwirki i Wigury,52.1933666,20.9804948
Warząchewka,52.5847362,19.0807506
Wasilków,53.1978735,23.1767524
Wałbrzych Centrum,50.7733734,16.2698578
Wałbrzych Fabryczny,50.7613941,16.2670481
Wałbrzych Główny,50.7433935,16.2806898
Wałbrzych Miasto,50.7862286,16.2852337
Wałbrzych Szczawienko,50.8163038,16.3026729
Wałcz,53.2751302,16.4842762
Wałdowo Szlacheckie,53.3878924,18.7227819
Wałki,50.0509356,21.1435839
Wałowice,51.9845271,14.7947321
Wejherowo,54.6057529,18.2296473
Wejherowo Śmiechowo,54.6019278,18.2756241
Wejherowo-Nanice,,
Werbkowice,50.7455326,23.7676522
Werchrata,50.2480592,23.4881908
Widacz,49.6325134,21.8465675
Widełka,50.2015766,21.8728898
Widuchowa,53.1236648,14.4461228
Widzów Teklinów,50.9810384,19.367218
Wiekowo,54.3042749,16.3881209
Wielanowo,53.8738317,16.3264092
Wieleń,52.9074204,16.1801037
Wielowieś,50.6252025,21.7585061
Wieluń,51.2239595,18.5819955
Wieluń Dąbrowa,51.2395002,18.5505706
Wierchomla Wielka,49.4025121,20.7553367
Wierna Rzeka,50.8650094,20.3126263
Wieruszów,,
Wieruszów Miasto,51.2995514,18.1645906
Wierzbica Górna,51.0222216,17.9756766
Wierzbice Wrocławskie,,
Wierzbowa Śląska,51.3969165,15.7588544
Wierzchosławice,52.8683481,18.3582354
Wierzchowice,51.5028344,17.3516627
Wierzchucin,53.5481472,18.1128342
Wierzchucin Stary,53.5571304,18.0909408
Wiesiółka,50.4146778,19.349177
Wieżyca,54.2344998,18.1278036
Wiktorowo,52.4642387,19.1063191
Wilczyska,49.675964,20.9436809
Wilkoszewice,51.2515894,19.6304323
Wilkowice Bystra,49.7600222,19.0882156
Wilkowo Świebodzińskie,52.2563923,15.4690561
Wilkołaz,50.986117,22.3294289
Wilkołaz Wieś,51.0070183,22.3359988
Wilków Namysłowski,51.094239,17.6584067
Wipsowo,53.8948552,20.7968301
Wiry,52.3155055,16.8688567
Wisłoczanka,49.9517831,21.91484
Witanów,52.1859428,20.5741079
Witaszyce,51.9360279,17.5627832
Witkowo Pyrzyckie,53.2863394,15.0752313
Witków Śląski,50.7938256,16.1274664
Witnica,52.6673592,14.8959217
Witnica Chojeńska,52.866148,14.4511483
Witonia,52.1568164,19.2765941
Witowo,52.6391998,23.4844741
Więcławice,52.8410371,18.3042781
Wiśniowa,49.8661695,21.6519178
Wodzisław Śląski,50.0082337,18.4763476
Wodzisław Śląski Radlin,50.02007,18.4811094
Wojanów,50.8847457,15.8212863
Wojaszówka,49.7763119,21.6591111
Wojnowice Wielkopolskie,52.3268949,16.4666369
Wola Bierwiecka,51.5431912,21.1773235
Wola Filipowska,50.1307907,19.5773766
Wola Lipieniecka,51.2770711,21.0265513
Wola Radziszowska,49.9063289,19.7770832
Wola Rowska,51.8221091,21.6009512
Wola Rzędzińska,50.0352195,21.0723679
Wolbrom,50.3759508,19.7723377
Wolbórka,51.5933075,19.7234733
Wolenice,51.7734511,17.4380072
Wolica,50.753349,20.4704275
Wolin,53.8487048,14.6095971
Wolsztyn,52.1113369,16.1084137
Wołczyn,51.0134476,18.047335
Wołomin,52.3466969,21.2381996
Wołomin Słoneczna,52.3546431,21.2564425
Wołowno,53.8172632,20.1981846
Wołów,51.3335371,16.6332638
Wrocław Brochów,51.0642772,17.0846294
Wrocław Grabiszyn,51.0966298,16.9742551
Wrocław Główny,51.097916,17.0379512
Wrocław Kowale,51.134977,17.1001696
Wrocław Kuźniki,51.1280409,16.9522088
Wrocław Leśnica,51.1419203,16.8673226
Wrocław Mikołajów,51.1162965,16.998395
Wrocław Muchobór,51.1110689,16.9748716
Wrocław Nadodrze,51.1256579,17.0329905
Wrocław Nowy Dwór,51.1196824,16.9551819
Wrocław Osobowice,51.1670184,16.9966652
Wrocław Partynice,51.0611197,16.9976665
Wrocław Pawłowice,51.1687803,17.1083776
Wrocław Popiele,51.1224546,17.1142732
Wrocław Popowice,51.1221428,16.9998836
Wrocław Pracze,51.1696835,16.9035099
Wrocław Psie Pole,51.150452,17.1185445
Wrocław Różanka,51.1379273,17.0037009
Wrocław Sołtysowice,51.1425485,17.0835373
Wrocław Stadion,51.1370304,16.9406255
Wrocław Strachocin,51.1098233,17.1457051
Wrocław Swojczyce,51.1158639,17.1213443
Wrocław Szczepin,51.1229484,17.0142423
Wrocław Wojnów,51.1035553,17.157708
Wrocław Wojnów Wschodni,51.0980573,17.1682379
Wrocław Wojszyce,51.069076,17.0321678
Wrocław Zachodni,51.0899487,16.949504
Wrocław Zakrzów,51.1587445,17.1221927
Wrocław Świniary,51.1979443,16.9698725
Wrocław Żerniki,51.1261582,16.9163642
Wrocławki,53.241553,18.6106306
Wronki,52.7050142,16.3861827
Wrzeście,54.6776662,17.6680739
Września,52.3269181,17.5552546
Wrzosowo,54.1143108,15.8377641
Wrzosów,52.1843862,21.4826932
Wróblik Szlachecki,49.613564,21.8784325
Wschowa,51.7938409,16.3162025
Wudzyn,53.3229113,18.0758222
Wydartowo,52.6110482,17.9038241
Wygoda,50.6042391,20.4586174
Wykno,51.6606449,19.9046367
Wyry,,
Wyrzysk Osiek,53.1190261,17.2926539
Wysoka Kamieńska,53.8259688,14.8320104
Wyszków,52.601731,21.4466076
Wyszków Śląski,50.4664502,17.3908811
Wólka,52.3216852,17.7534718
Wólka Kańska,51.1284122,23.066406
Wólka Niedzieliska,50.7087532,23.087002
Wólka Orłowska,50.9269656,23.1834418
Wólka Plebańska,51.1534903,20.6325875
Wólka Ratowiecka,53.2791475,23.2431713
Wąbrzeźno,53.2652414,18.982122
Wąchock,51.0797066,21.0163501
Wągrowiec,52.809638,17.203482
Wąsosz Konecki,51.1451673,20.4776163
Węgierska Górka,49.603627,19.1188449
Węgliniec,51.2901013,15.2229659
Węgry,50.9257407,17.0328277
Węgrzce Wielkie,50.0187082,20.1056482
Wężyska,52.0127802,14.9515696
Władysławowo,54.7934715,18.4019048
Władysławowo Port,54.7935583,18.4176714
Włocławek,52.6532538,19.0587525
Włocławek Zazamcze,52.6679897,19.038781
Włoszczowa,50.8377903,20.0145481
Włoszczowa Północ,50.8563947,19.9460452
Włoszczowice,50.6516559,20.5864368
Zabiele,51.5433634,22.7631793
Zabierzów,50.1178616,19.7985948
Zabierzów Rząska,50.1056421,19.8235796
Zabieżki,52.0124251,21.4719538
Zaborze,49.870295,18.8112708
Zaborów,49.9072865,21.8303778
Zaborów Błonia,49.923987,21.8197947
Zabrze,50.3052986,18.7871281
Zabrzeg,49.9076132,18.9387433
Zabrzeg Czarnolesie,49.903888,18.9061939
Zaczernie,50.0953908,21.9794148
Zagajnik,51.2701275,15.2994411
Zagnańsk,50.9744474,20.6634975
Zagościniec,52.3648837,21.2805848
Zagrody,50.0514746,22.9048847
Zagrody Kościół,51.0785319,23.1904113
Zagórz,49.5136571,22.2645083
Zajezierce,53.1013553,23.3581187
Zajezierze koło Dęblina,51.5420504,21.8172588
Zaklików,50.7684666,22.1084084
Zaklików Miasto,50.7547831,22.0933398
Zakopane,49.3087943,19.9695738
Zakrzewo Złotowskie,53.4164126,17.1407908
Zakrzów Kotowice,51.0357832,17.2100505
Zakrzów-Sarnowo,,
Zalesie Górne,52.0267894,21.0416057
Zalesie Krasieńskie,51.121702,23.1664614
Zamek Bulowicki,49.880075,19.263448
Zamość,50.7135833,23.2385958
Zamość Bortatycze,,
Zamość Starówka,50.7170517,23.2626481
Zamość Wschód,50.7224867,23.2760175
Zaosie,51.6335454,19.9335709
Zarośle,53.6643943,18.1174351
Zarszyn,49.5841665,22.0195565
Zarzecze,50.3630874,19.6984451
Zarębki,50.2724546,21.7620319
Zasieki,51.7355133,14.669204
Zastocze,53.3123872,22.8574355
Zastów,50.1237784,20.0690701
Zator,50.0022619,19.4289372
Zawada,50.7159984,23.1253606
Zawadzkie,50.6089622,18.4735585
Zawadówka,51.1241097,23.3550312
Zawiercie,50.481009,19.4231231
Zawiercie Borowe Pole,50.5107897,19.3990067
Zblewo,53.942726,18.3053339
Zbydniów,50.6345402,21.9213683
Zbąszynek,52.2426128,15.8181758
Zbąszyń,52.2594116,15.8947648
Zdrody Nowe,52.9541569,22.7825137
Zduny,51.6464157,17.3662662
Zduńska Wola,51.6113628,18.9472078
Zduńska Wola Karsznice,51.5890163,18.9947256
Zdzieszowice,50.4217225,18.1265296
Zebrzydowa,51.2546842,15.3891682
Zebrzydowice,49.8703282,18.6231281
Zembrzyce,49.7749692,19.5914722
Zgierz,51.8494636,19.4257929
Zgierz Jaracza,51.8637823,19.422434
Zgierz Kontrewers,51.8648027,19.3404051
Zgierz Północ,51.8690751,19.3837166
Zgorzelec,51.1401724,15.0030407
Zgorzelec Miasto,51.1548002,15.0201231
Zieleń,53.2164638,18.9308999
Zielona Góra Główna,51.9474642,15.5132122
Zielona Góra Nowy Kisielin,51.9154425,15.6270056
Zielona Góra Przylep,51.9778876,15.4387744
Zielona Góra Stary Kisielin,51.9362384,15.5901922
Zielonczyn,53.1509902,17.8081558
Zielone Wzgórza,52.5652259,17.00857
Zielonka,52.3114582,21.1568511
Zielonka Bankowa,52.2914516,21.1540209
Zielonka Pasłęcka,53.9808815,19.7009654
Zielonka Pomorska,53.5775197,18.1092824
Ziemomyśl,53.1671009,15.3021076
Zimnochy,52.9547624,23.0854215
Ziębice,50.6085,17.0338855
Zubrzyk,49.3874778,20.7538512
Zwardoń,49.5043198,18.97742
Zwierzyniec,52.3997487,16.992445
Zygmuntowo Mazowieckie,52.7275437,21.5257061
Ząbkowice Śląskie,50.5972985,16.812773
Ząbrowo,53.637318,19.4608192
Zębice Wrocławskie,51.0066673,17.1620734
Złojec,50.7685363,23.1009898
Złotkowo,52.5099706,16.8306219
Złotniki,52.4960912,16.8358474
Złotniki Grzybowe,52.4840942,16.8441638
Złotniki Kujawskie,52.9036425,18.1473261
Złotów,53.3588889,17.0529701
Ładzin,53.9111124,14.5624754
Łambinowice,50.537633,17.5653022
Łankiejmy,54.1424186,21.0696009
Łapy,52.9903414,22.8842468
Łapy Osse,52.9741084,22.8401985
Łask,51.6037433,19.1117876
Łaskarzew Przystanek,51.7981648,21.6084962
Ławica,50.4775664,16.6707495
Łaziska Górne,50.1593894,18.8452326
Łaziska Górne Brada,50.1580552,18.8208179
Łaziska Średnie,,
Łaznów,51.631197,19.7548526
Łazy,50.4300849,19.3918857
Łańcut,50.0817497,22.226396
Łeba,54.7559677,17.5534151
Łobez,53.6366544,15.6277294
Łochów,52.5339648,21.6875326
Łodygowice,49.7251478,19.1413337
Łodygowice Górne,49.7357312,19.1236922
Łomnica-Zdrój,,
Łopatki,51.3297113,22.1515295
Łopuchowo,52.6135089,17.0949172
Łopuchowo Osiedle,52.6190438,17.1098552
Łosiów,50.7885801,17.5517526
Łososiowice,51.2970738,16.6750767
Łowczów,49.9127372,21.0035532
Łowczówek Pleśna,49.9279064,20.9495946
Łowicz Główny,52.1057274,19.9542513
Łowicz Przedmieście,52.093053,19.9466922
Łoźnica,53.6901937,14.8661902
Łubiana,54.1148169,17.8666071
Łuczyce,50.1626093,20.0744995
Ługi Górzyckie,52.5153714,14.6509699
Łuków,51.9404823,22.3928588
Łuków Zapowiednik,51.9319719,22.4145881
Łuków Łapiguz,51.924509,22.3598062
Łuków Śląski,50.100714,18.4091741
Łupków,49.2472345,22.059131
Łupowo,52.7009071,15.123336
Łódź Andrzejów,51.7410347,19.6171505
Łódź Andrzejów Szosa,51.7415641,19.6129065
Łódź Arturówek,51.8154459,19.4566295
Łódź Chojny,51.7264089,19.4841953
Łódź Dąbrowa,51.7358946,19.5106059
Łódź Fabryczna,51.7695536,19.4696108
Łódź Kaliska,51.757822,19.4305417
Łódź Lublinek,51.7209139,19.3592771
Łódź Marysin,51.8001727,19.4861551
Łódź Niciarniana,51.7668148,19.5074366
Łódź Olechów Wiadukt,51.7236883,19.5436605
Łódź Olechów Wschód,51.7297931,19.5947679
Łódź Olechów Zachód,51.724925,19.5591893
Łódź Pabianicka,51.7262238,19.4453004
Łódź Radogoszcz Wschód,51.8266567,19.4433824
Łódź Radogoszcz Zachód,51.8219706,19.4157524
Łódź Retkinia,51.7403478,19.40658
Łódź Stoki,51.7765631,19.5105621
Łódź Warszawska,51.8080021,19.47123
Łódź Widzew,51.7631038,19.5438083
Łódź Żabieniec,51.7935514,19.4070192
Łąck,52.4870282,19.5960518
Łączna,50.9916624,20.7984417
Łąg,53.8309631,18.0627245
Łążek,53.6408038,18.2152945
Łęczyca,52.049237,19.1932523
Łęgajny,53.821203,20.6176464
Łęka Opatowska,51.2171846,18.0915432
Ścinawa,51.4092099,16.4214143
Ścinawka Średnia,50.5263997,16.5052266
Ślesin,53.1560955,17.7003131
Śliwice,53.7131722,18.1821261
Śliwiczki,53.6871757,18.1930053
Środa Wielkopolska,52.2183302,17.2741954
Środa Śląska,51.1894295,16.6067231
Śródborów,,
Świba,51.3007464,18.0850546
Świder,,
Świdnica Miasto,50.8412151,16.4815065
Świdnica Przedmieście,50.8350396,16.5039056
Świdnik Miasto,51.2237184,22.6954138
Świdnik Wschód,51.2210444,22.7143765
Świdwin,53.7811366,15.7727241
Świebodzice,50.8601928,16.3328311
Świebodzin,52.2452509,15.5399619
Świekatowo,53.416662,18.1048841
Świerki Dolne,50.6323853,16.4324995
Świlcza,50.0780844,21.9015429
Świnoujście,53.9045531,14.2663844
Świnoujście Port,53.9011883,14.2599428
Świnoujście Przytór,53.8974564,14.3368379
Świnoujście Warszów,53.9003099,14.2852775
Święta Katarzyna,51.0295633,17.1231438
Świętajno,53.5628484,21.2291206
Świętochłowice,50.2890774,18.9181057
Żabi Róg,53.8764039,20.0176074
Żagań,51.6037635,15.3154215
Żakowice,51.7321929,19.7910611
Żakowice Południowe,51.729869,19.7878613
Żalno,53.597648,17.7596741
Żarki-Letnisko,,
Żary,51.6343084,15.1384668
Żary Kunice,51.5993421,15.1656871
Żarów,50.9394957,16.4927789
Żednia,53.0870289,23.4699163
Żegiestów,49.3675633,20.7852637
Żegiestów-Zdrój,,
Żelistrzewo,54.674051,18.4161141
Żelisławice,50.8038128,19.858556
Żmigród,51.4753329,16.901885
Żory,50.0529697,18.7020594
Żukowo,54.3443199,18.3620729
Żukowo Wschodnie,54.3483605,18.3729708
Żulin,51.0618835,23.1719769
Żurawica,49.8199397,22.8245025
Żurawica Rozrządowa,49.8324018,22.83728
Żychlin,52.2131012,19.6188676
Życzyn,51.6477105,21.7603993
Żyrardów,52.0524718,20.4489753
Żywiec,49.6791207,19.1856696
Żórawina,50.983502,17.049605
